{"type":"FeatureCollection", "features": [
{"type":"Feature","geometry":{"type":"Point","coordinates":[99.58173393949392,7.35284746492951]},"properties":{"_uid_":1,"name_place":"เกาะฮอไล","type2":"เกาะ","type3":"แหล่งธรรมชาติท้องถิ่น","prov":"ตรัง","amp":"ปะเหลียน","tam":"บ้านนา","reg":"ภาคใต้"}},
{"type":"Feature","geometry":{"type":"Point","coordinates":[98.36668179479159,7.743500955837636]},"properties":{"_uid_":2,"name_place":"เกาะเฮ","type2":"เกาะ","type3":"แหล่งธรรมชาติท้องถิ่น","prov":"ภูเก็ต","amp":"เมืองภูเก็ต","tam":"ราไวย์","reg":"ภาคใต้"}},
{"type":"Feature","geometry":{"type":"Point","coordinates":[99.55725492233778,7.115248584907699]},"properties":{"_uid_":3,"name_place":"หาดยาว","type2":"ชายหาด","type3":"แหล่งธรรมชาติท้องถิ่น","prov":"ตรัง","amp":"ปะเหลียน","tam":"เกาะสุกร","reg":"ภาคใต้"}},
{"type":"Feature","geometry":{"type":"Point","coordinates":[98.42180753841608,7.986519277341145]},"properties":{"_uid_":4,"name_place":"แหลมยาบู","type2":"ชายหาด","type3":"แหล่งธรรมชาติท้องถิ่น","prov":"ภูเก็ต","amp":"ถลาง","tam":"ป่าคลอก","reg":"ภาคใต้"}},
{"type":"Feature","geometry":{"type":"Point","coordinates":[98.72346693588133,17.67933125035781]},"properties":{"_uid_":5,"name_place":"ผาพระนอน","type2":"ภูเขา","type3":"แหล่งธรรมชาติท้องถิ่น","prov":"ตาก","amp":"สามเงา","tam":"บ้านนา","reg":"ภาคเหนือ"}},
{"type":"Feature","geometry":{"type":"Point","coordinates":[99.96477817875679,7.46241599052633]},"properties":{"_uid_":6,"name_place":"ถ้ำเขาพญาโฮ้ง","type2":"ถ้ำ","type3":"แหล่งธรรมชาติท้องถิ่น","prov":"พัทลุง","amp":"กงหรา","tam":"ชะรัด","reg":"ภาคใต้"}},
{"type":"Feature","geometry":{"type":"Point","coordinates":[98.36381559927575,9.218096531218949]},"properties":{"_uid_":7,"name_place":"เกาะนกฮูก","type2":"เกาะ","type3":"แหล่งธรรมชาติท้องถิ่น","prov":"พังงา","amp":"คุระบุรี","tam":"คุระ","reg":"ภาคใต้"}},
{"type":"Feature","geometry":{"type":"Point","coordinates":[98.515855020128,9.582804118732701]},"properties":{"_uid_":8,"name_place":"เกาะนกฮูก","type2":"เกาะ","type3":"แหล่งธรรมชาติท้องถิ่น","prov":"ระนอง","amp":"กะเปอร์","tam":"ม่วงกลวง","reg":"ภาคใต้"}},
{"type":"Feature","geometry":{"type":"Point","coordinates":[100.985617011258,18.602238457321086]},"properties":{"_uid_":9,"name_place":"แก่งหลวง","type2":"แก่ง","type3":"แหล่งธรรมชาติท้องถิ่น","prov":"น่าน","amp":"แม่จริม","tam":"น้ำพาง","reg":"ภาคเหนือ"}},
{"type":"Feature","geometry":{"type":"Point","coordinates":[100.89241180695932,18.314375670943676]},"properties":{"_uid_":10,"name_place":"แก่งหลวง","type2":"แก่ง","type3":"แหล่งธรรมชาติท้องถิ่น","prov":"น่าน","amp":"นาน้อย","tam":"ศรีษะเกษ","reg":"ภาคเหนือ"}},
{"type":"Feature","geometry":{"type":"Point","coordinates":[100.58047095827854,19.397392693691774]},"properties":{"_uid_":11,"name_place":"น้ำตกห้วยหาด","type2":"น้ำตก","type3":"แหล่งธรรมชาติท้องถิ่น","prov":"น่าน","amp":"สองแคว","tam":"ยอด","reg":"ภาคเหนือ"}},
{"type":"Feature","geometry":{"type":"Point","coordinates":[98.87363203925709,17.63003398507483]},"properties":{"_uid_":12,"name_place":"ทุ่งกิ๊ก-ทุ่งนางู","type2":"","type3":"แหล่งธรรมชาติท้องถิ่น","prov":"ลำพูน","amp":"ลี้","tam":"ก้อ","reg":"ภาคเหนือ"}},
{"type":"Feature","geometry":{"type":"Point","coordinates":[98.96572249330231,7.947277115416588]},"properties":{"_uid_":13,"name_place":"หาดยาว","type2":"ชายหาด","type3":"แหล่งธรรมชาติท้องถิ่น","prov":"กระบี่","amp":"เหนือคลอง","tam":"ตลิ่งชัน","reg":"ภาคใต้"}},
{"type":"Feature","geometry":{"type":"Point","coordinates":[99.96573420800912,9.775520368065942]},"properties":{"_uid_":14,"name_place":"หาดยาว","type2":"ชายหาด","type3":"แหล่งธรรมชาติท้องถิ่น","prov":"สุราษฎร์ธานี","amp":"เกาะพะงัน","tam":"เกาะพะงัน","reg":"ภาคใต้"}},
{"type":"Feature","geometry":{"type":"Point","coordinates":[99.53361633727094,6.830497742749678]},"properties":{"_uid_":15,"name_place":"อ่าวพังกาใหญ่","type2":"ชายหาด","type3":"แหล่งธรรมชาติท้องถิ่น","prov":"สตูล","amp":"ละงู","tam":"ปากน้ำ","reg":"ภาคใต้"}},
{"type":"Feature","geometry":{"type":"Point","coordinates":[100.84018699177349,12.706880466276335]},"properties":{"_uid_":16,"name_place":"หาดยาว","type2":"ชายหาด","type3":"แหล่งธรรมชาติท้องถิ่น","prov":"ชลบุรี","amp":"สัตหีบ","tam":"สัตหีบ","reg":"ภาคตะวันออก"}},
{"type":"Feature","geometry":{"type":"Point","coordinates":[99.39115691284955,7.315614950277648]},"properties":{"_uid_":17,"name_place":"หาดยาว","type2":"ชายหาด","type3":"แหล่งธรรมชาติท้องถิ่น","prov":"ตรัง","amp":"กันตัง","tam":"เกาะลิบง","reg":"ภาคใต้"}},
{"type":"Feature","geometry":{"type":"Point","coordinates":[99.9617629400804,8.590161566285806]},"properties":{"_uid_":18,"name_place":"หาดปากพะยิง","type2":"ชายหาด","type3":"แหล่งธรรมชาติท้องถิ่น","prov":"นครศรีธรรมราช","amp":"ท่าศาลา","tam":"ท่าศาลา","reg":"ภาคใต้"}},
{"type":"Feature","geometry":{"type":"Point","coordinates":[98.61464420091501,8.167537330026732]},"properties":{"_uid_":19,"name_place":"หาดป่าทราย","type2":"ชายหาด","type3":"แหล่งธรรมชาติท้องถิ่น","prov":"พังงา","amp":"เกาะยาว","tam":"เกาะยาวน้อย","reg":"ภาคใต้"}},
{"type":"Feature","geometry":{"type":"Point","coordinates":[101.46139860182147,6.879916903925324]},"properties":{"_uid_":20,"name_place":"หาดปานาเระ","type2":"ชายหาด","type3":"แหล่งธรรมชาติท้องถิ่น","prov":"ปัตตานี","amp":"ปะนาเระ","tam":"ปะนาเระ","reg":"ภาคใต้"}},
{"type":"Feature","geometry":{"type":"Point","coordinates":[102.68769859929765,12.10118859817448]},"properties":{"_uid_":21,"name_place":"หาดพระชนก","type2":"ชายหาด","type3":"แหล่งธรรมชาติท้องถิ่น","prov":"ตราด","amp":"เมืองตราด","tam":"แหลมกลัด","reg":"ภาคตะวันออก"}},
{"type":"Feature","geometry":{"type":"Point","coordinates":[99.0337899488563,7.603112051441732]},"properties":{"_uid_":22,"name_place":"หาดพระแอะ","type2":"ชายหาด","type3":"แหล่งธรรมชาติท้องถิ่น","prov":"กระบี่","amp":"เกาะลันตา","tam":"ศาลาด่าน","reg":"ภาคใต้"}},
{"type":"Feature","geometry":{"type":"Point","coordinates":[102.76328314546713,12.02530039432195]},"properties":{"_uid_":23,"name_place":"หาดพลอยแดง","type2":"ชายหาด","type3":"แหล่งธรรมชาติท้องถิ่น","prov":"ตราด","amp":"เมืองตราด","tam":"แหลมกลัด","reg":"ภาคตะวันออก"}},
{"type":"Feature","geometry":{"type":"Point","coordinates":[100.19649661295445,7.50433663292443]},"properties":{"_uid_":24,"name_place":"หาดพัดทอง","type2":"ชายหาด","type3":"แหล่งธรรมชาติท้องถิ่น","prov":"พัทลุง","amp":"เขาชัยสน","tam":"จองถนน","reg":"ภาคใต้"}},
{"type":"Feature","geometry":{"type":"Point","coordinates":[102.81635728623684,11.861396628006005]},"properties":{"_uid_":25,"name_place":"หาดไพลิน","type2":"ชายหาด","type3":"แหล่งธรรมชาติท้องถิ่น","prov":"ตราด","amp":"คลองใหญ่","tam":"ไม้รูด","reg":"ภาคตะวันออก"}},
{"type":"Feature","geometry":{"type":"Point","coordinates":[98.43381331484285,9.478977319380265]},"properties":{"_uid_":26,"name_place":"หาดมณีนาคา","type2":"ชายหาด","type3":"แหล่งธรรมชาติท้องถิ่น","prov":"ระนอง","amp":"สุขสำราญ","tam":"กำพวน","reg":"ภาคใต้"}},
{"type":"Feature","geometry":{"type":"Point","coordinates":[99.4207024185835,7.329023738477614]},"properties":{"_uid_":27,"name_place":"หาดมดตะนอย","type2":"ชายหาด","type3":"แหล่งธรรมชาติท้องถิ่น","prov":"ตรัง","amp":"กันตัง","tam":"เกาะลิบง","reg":"ภาคใต้"}},
{"type":"Feature","geometry":{"type":"Point","coordinates":[104.7530760626419,16.679734029980256]},"properties":{"_uid_":28,"name_place":"หาดมโนภิรมย์","type2":"ชายหาด","type3":"แหล่งธรรมชาติท้องถิ่น","prov":"มุกดาหาร","amp":"หว้านใหญ่","tam":"ชะโนด","reg":"ภาคตะวันออกเฉียงเหนือ"}},
{"type":"Feature","geometry":{"type":"Point","coordinates":[101.51504111795033,6.859408158393071]},"properties":{"_uid_":29,"name_place":"หาดมะรวด","type2":"ชายหาด","type3":"แหล่งธรรมชาติท้องถิ่น","prov":"ปัตตานี","amp":"ปะนาเระ","tam":"บ้านกลาง","reg":"ภาคใต้"}},
{"type":"Feature","geometry":{"type":"Point","coordinates":[102.75508855142198,12.03757848076979]},"properties":{"_uid_":30,"name_place":"หาดมุกแก้ว","type2":"ชายหาด","type3":"แหล่งธรรมชาติท้องถิ่น","prov":"ตราด","amp":"เมืองตราด","tam":"แหลมกลัด","reg":"ภาคตะวันออก"}},
{"type":"Feature","geometry":{"type":"Point","coordinates":[98.30087297977667,8.1242953268869]},"properties":{"_uid_":31,"name_place":"หาดไม้ขาว","type2":"ชายหาด","type3":"แหล่งธรรมชาติท้องถิ่น","prov":"ภูเก็ต","amp":"ถลาง","tam":"ไม้ขาว","reg":"ภาคใต้"}},
{"type":"Feature","geometry":{"type":"Point","coordinates":[102.77718241864423,11.926077036256578]},"properties":{"_uid_":32,"name_place":"หาดไม้รูด","type2":"ชายหาด","type3":"แหล่งธรรมชาติท้องถิ่น","prov":"ตราด","amp":"คลองใหญ่","tam":"ไม้รูด","reg":"ภาคตะวันออก"}},
{"type":"Feature","geometry":{"type":"Point","coordinates":[100.07618074224612,9.719449458898936]},"properties":{"_uid_":33,"name_place":"หาดยาง","type2":"ชายหาด","type3":"แหล่งธรรมชาติท้องถิ่น","prov":"สุราษฎร์ธานี","amp":"เกาะพะงัน","tam":"บ้านใต้","reg":"ภาคใต้"}},
{"type":"Feature","geometry":{"type":"Point","coordinates":[102.77045258833625,11.973850212385848]},"properties":{"_uid_":34,"name_place":"หาดราชการุณย์","type2":"ชายหาด","type3":"แหล่งธรรมชาติท้องถิ่น","prov":"ตราด","amp":"คลองใหญ่","tam":"ไม้รูด","reg":"ภาคตะวันออก"}},
{"type":"Feature","geometry":{"type":"Point","coordinates":[99.307960196773,7.527088216035243]},"properties":{"_uid_":35,"name_place":"หาดราชมงคล","type2":"ชายหาด","type3":"แหล่งธรรมชาติท้องถิ่น","prov":"ตรัง","amp":"สิเกา","tam":"ไม้ฝาด","reg":"ภาคใต้"}},
{"type":"Feature","geometry":{"type":"Point","coordinates":[98.83753446247339,8.010476342590087]},"properties":{"_uid_":36,"name_place":"หาดไร่เลย์","type2":"ชายหาด","type3":"แหล่งธรรมชาติท้องถิ่น","prov":"กระบี่","amp":"เมืองกระบี่","tam":"อ่าวนาง","reg":"ภาคใต้"}},
{"type":"Feature","geometry":{"type":"Point","coordinates":[102.62522939358198,12.151008510351492]},"properties":{"_uid_":37,"name_place":"หาดลานทราย","type2":"ชายหาด","type3":"แหล่งธรรมชาติท้องถิ่น","prov":"ตราด","amp":"เมืองตราด","tam":"แหลมกลัด","reg":"ภาคตะวันออก"}},
{"type":"Feature","geometry":{"type":"Point","coordinates":[99.93453080122767,9.499713541682057]},"properties":{"_uid_":38,"name_place":"หาดลิปะน้อย","type2":"ชายหาด","type3":"แหล่งธรรมชาติท้องถิ่น","prov":"สุราษฎร์ธานี","amp":"เกาะสมุย","tam":"ลิปะน้อย","reg":"ภาคใต้"}},
{"type":"Feature","geometry":{"type":"Point","coordinates":[99.5646565097865,7.100821252654726]},"properties":{"_uid_":39,"name_place":"หาดโละใหญ่","type2":"ชายหาด","type3":"แหล่งธรรมชาติท้องถิ่น","prov":"ตรัง","amp":"ปะเหลียน","tam":"เกาะสุกร","reg":"ภาคใต้"}},
{"type":"Feature","geometry":{"type":"Point","coordinates":[100.89215776252574,12.97233786793804]},"properties":{"_uid_":40,"name_place":"หาดวงพระจันทร์","type2":"ชายหาด","type3":"แหล่งธรรมชาติท้องถิ่น","prov":"ชลบุรี","amp":"บางละมุง","tam":"นาเกลือ","reg":"ภาคตะวันออก"}},
{"type":"Feature","geometry":{"type":"Point","coordinates":[100.88526709077274,12.961315158387695]},"properties":{"_uid_":41,"name_place":"หาดวงอำมาตย์","type2":"ชายหาด","type3":"แหล่งธรรมชาติท้องถิ่น","prov":"ชลบุรี","amp":"บางละมุง","tam":"นาเกลือ","reg":"ภาคตะวันออก"}},
{"type":"Feature","geometry":{"type":"Point","coordinates":[104.86981904696893,15.224901102794927]},"properties":{"_uid_":42,"name_place":"หาดวัดใต้","type2":"ชายหาด","type3":"แหล่งธรรมชาติท้องถิ่น","prov":"อุบลราชธานี","amp":"เมืองอุบลราชธานี","tam":"ในเมือง","reg":"ภาคตะวันออกเฉียงเหนือ"}},
{"type":"Feature","geometry":{"type":"Point","coordinates":[105.53143990201825,15.394902713289786]},"properties":{"_uid_":43,"name_place":"หาดวิจิตรา","type2":"ชายหาด","type3":"แหล่งธรรมชาติท้องถิ่น","prov":"อุบลราชธานี","amp":"โขงเจียม","tam":"ห้วยไผ่","reg":"ภาคตะวันออกเฉียงเหนือ"}},
{"type":"Feature","geometry":{"type":"Point","coordinates":[104.98264266872097,15.266556451031047]},"properties":{"_uid_":44,"name_place":"หาดศรีภิรมย์","type2":"ชายหาด","type3":"แหล่งธรรมชาติท้องถิ่น","prov":"อุบลราชธานี","amp":"เมืองอุบลราชธานี","tam":"กุดลาด","reg":"ภาคตะวันออกเฉียงเหนือ"}},
{"type":"Feature","geometry":{"type":"Point","coordinates":[100.42846987464365,7.516636641269315]},"properties":{"_uid_":45,"name_place":"หาดสทิงพระ","type2":"ชายหาด","type3":"แหล่งธรรมชาติท้องถิ่น","prov":"สงขลา","amp":"สทิงพระ","tam":"กระดังงา","reg":"ภาคใต้"}},
{"type":"Feature","geometry":{"type":"Point","coordinates":[99.9623208307539,9.77124399347386]},"properties":{"_uid_":46,"name_place":"หาดสน","type2":"ชายหาด","type3":"แหล่งธรรมชาติท้องถิ่น","prov":"สุราษฎร์ธานี","amp":"เกาะพะงัน","tam":"เกาะพะงัน","reg":"ภาคใต้"}},
{"type":"Feature","geometry":{"type":"Point","coordinates":[102.82520901010781,11.84522155742515]},"properties":{"_uid_":47,"name_place":"หาดสนงาม","type2":"ชายหาด","type3":"แหล่งธรรมชาติท้องถิ่น","prov":"ตราด","amp":"คลองใหญ่","tam":"ไม้รูด","reg":"ภาคตะวันออก"}},
{"type":"Feature","geometry":{"type":"Point","coordinates":[100.93453966490756,6.888677800468912]},"properties":{"_uid_":48,"name_place":"หาดสร้อยสวรรค์","type2":"ชายหาด","type3":"แหล่งธรรมชาติท้องถิ่น","prov":"สงขลา","amp":"เทพา","tam":"เทพา","reg":"ภาคใต้"}},
{"type":"Feature","geometry":{"type":"Point","coordinates":[99.97140978766018,9.785525006343947]},"properties":{"_uid_":49,"name_place":"หาดสลัด","type2":"ชายหาด","type3":"แหล่งธรรมชาติท้องถิ่น","prov":"สุราษฎร์ธานี","amp":"เกาะพะงัน","tam":"เกาะพะงัน","reg":"ภาคใต้"}},
{"type":"Feature","geometry":{"type":"Point","coordinates":[103.47307440196631,16.70349581218603]},"properties":{"_uid_":50,"name_place":"หาดสวนแก้ว","type2":"ชายหาด","type3":"แหล่งธรรมชาติท้องถิ่น","prov":"กาฬสินธุ์","amp":"สหัสขันธ์","tam":"โนนบุรี","reg":"ภาคตะวันออกเฉียงเหนือ"}},
{"type":"Feature","geometry":{"type":"Point","coordinates":[99.36720741384244,7.34247015948261]},"properties":{"_uid_":51,"name_place":"หาดสั้น","type2":"ชายหาด","type3":"แหล่งธรรมชาติท้องถิ่น","prov":"ตรัง","amp":"กันตัง","tam":"เกาะลิบง","reg":"ภาคใต้"}},
{"type":"Feature","geometry":{"type":"Point","coordinates":[99.53843278200515,7.232847917389366]},"properties":{"_uid_":52,"name_place":"หาดสำราญ","type2":"ชายหาด","type3":"แหล่งธรรมชาติท้องถิ่น","prov":"ตรัง","amp":"หาดสำราญ","tam":"หาดสำราญ","reg":"ภาคใต้"}},
{"type":"Feature","geometry":{"type":"Point","coordinates":[103.97411902931846,18.328990611139936]},"properties":{"_uid_":53,"name_place":"หาดสีดา","type2":"ชายหาด","type3":"แหล่งธรรมชาติท้องถิ่น","prov":"บึงกาฬ","amp":"บุ่งคล้า","tam":"หนองเดิ่น","reg":"ภาคตะวันออกเฉียงเหนือ"}},
{"type":"Feature","geometry":{"type":"Point","coordinates":[100.1587461866448,7.624579799551669]},"properties":{"_uid_":54,"name_place":"หาดแสนสุขลำปำ","type2":"ชายหาด","type3":"แหล่งธรรมชาติท้องถิ่น","prov":"พัทลุง","amp":"เมืองพัทลุง","tam":"ลำปำ","reg":"ภาคใต้"}},
{"type":"Feature","geometry":{"type":"Point","coordinates":[99.93489210307925,9.533806337006837]},"properties":{"_uid_":55,"name_place":"หาดหน้าทอน","type2":"ชายหาด","type3":"แหล่งธรรมชาติท้องถิ่น","prov":"สุราษฎร์ธานี","amp":"เกาะสมุย","tam":"อ่างทอง","reg":"ภาคใต้"}},
{"type":"Feature","geometry":{"type":"Point","coordinates":[99.29186921507923,7.5726712013836766]},"properties":{"_uid_":56,"name_place":"หาดหัวหิน","type2":"ชายหาด","type3":"แหล่งธรรมชาติท้องถิ่น","prov":"ตรัง","amp":"สิเกา","tam":"บ่อหิน","reg":"ภาคใต้"}},
{"type":"Feature","geometry":{"type":"Point","coordinates":[102.07527922546082,12.47455449315014]},"properties":{"_uid_":57,"name_place":"หาดแหลมสิงห์","type2":"ชายหาด","type3":"แหล่งธรรมชาติท้องถิ่น","prov":"จันทบุรี","amp":"แหลมสิงห์","tam":"ปากน้ำแหลมสิงห์","reg":"ภาคตะวันออก"}},
{"type":"Feature","geometry":{"type":"Point","coordinates":[98.37949473054272,9.300068004307347]},"properties":{"_uid_":58,"name_place":"หาดอ่าวเคย","type2":"ชายหาด","type3":"แหล่งธรรมชาติท้องถิ่น","prov":"พังงา","amp":"คุระบุรี","tam":"คุระ","reg":"ภาคใต้"}},
{"type":"Feature","geometry":{"type":"Point","coordinates":[101.84669221853724,6.431537044195125]},"properties":{"_uid_":59,"name_place":"หาดอ่าวมะนาว","type2":"ชายหาด","type3":"แหล่งธรรมชาติท้องถิ่น","prov":"นราธิวาส","amp":"เมืองนราธิวาส","tam":"กะลุวอเหนือ","reg":"ภาคใต้"}},
{"type":"Feature","geometry":{"type":"Point","coordinates":[102.28887736048165,12.193501305959995]},"properties":{"_uid_":60,"name_place":"หาดอำฤทธิ์","type2":"ชายหาด","type3":"แหล่งธรรมชาติท้องถิ่น","prov":"ตราด","amp":"แหลมงอบ","tam":"คลองใหญ่","reg":"ภาคตะวันออก"}},
{"type":"Feature","geometry":{"type":"Point","coordinates":[99.85974375035127,19.192386387031046]},"properties":{"_uid_":61,"name_place":"หาดอิงกว๊าน","type2":"ชายหาด","type3":"แหล่งธรรมชาติท้องถิ่น","prov":"พะเยา","amp":"เมืองพะเยา","tam":"บ้านต๋อม","reg":"ภาคเหนือ"}},
{"type":"Feature","geometry":{"type":"Point","coordinates":[99.84084457976944,19.919093131971973]},"properties":{"_uid_":62,"name_place":"แม่น้ำกก","type2":"แหล่งน้ำ","type3":"แหล่งธรรมชาติท้องถิ่น","prov":"เชียงราย","amp":"เมืองเชียงราย","tam":"รอบเวียง","reg":"ภาคเหนือ"}},
{"type":"Feature","geometry":{"type":"Point","coordinates":[105.22845682814439,16.042005027186082]},"properties":{"_uid_":63,"name_place":"แม่น้ำโขง","type2":"แหล่งน้ำ","type3":"แหล่งธรรมชาติท้องถิ่น","prov":"อุบลราชธานี","amp":"เขมราฐ","tam":"เขมราฐ","reg":"ภาคตะวันออกเฉียงเหนือ"}},
{"type":"Feature","geometry":{"type":"Point","coordinates":[97.98018868752777,17.84114308365029]},"properties":{"_uid_":64,"name_place":"แม่น้ำเงา","type2":"แหล่งน้ำ","type3":"แหล่งธรรมชาติท้องถิ่น","prov":"แม่ฮ่องสอน","amp":"สบเมย","tam":"แม่สวด","reg":"ภาคเหนือ"}},
{"type":"Feature","geometry":{"type":"Point","coordinates":[101.01672210514957,13.491864265657677]},"properties":{"_uid_":65,"name_place":"แม่น้ำบางปะกง","type2":"แหล่งน้ำ","type3":"แหล่งธรรมชาติท้องถิ่น","prov":"ฉะเชิงเทรา","amp":"บางปะกง","tam":"ท่าข้าม","reg":"ภาคตะวันออก"}},
{"type":"Feature","geometry":{"type":"Point","coordinates":[99.9673082500139,12.39692950115573]},"properties":{"_uid_":66,"name_place":"แม่น้ำปราณบุรี","type2":"แหล่งน้ำ","type3":"แหล่งธรรมชาติท้องถิ่น","prov":"ประจวบคีรีขันธ์","amp":"ปราณบุรี","tam":"ปากน้ำปราณ","reg":"ภาคตะวันตก"}},
{"type":"Feature","geometry":{"type":"Point","coordinates":[98.47513074733799,19.478007063268223]},"properties":{"_uid_":67,"name_place":"แม่น้ำปาย","type2":"แหล่งน้ำ","type3":"แหล่งธรรมชาติท้องถิ่น","prov":"แม่ฮ่องสอน","amp":"ปาย","tam":"เวียงเหนือ","reg":"ภาคเหนือ"}},
{"type":"Feature","geometry":{"type":"Point","coordinates":[98.47870784074935,16.981745039754397]},"properties":{"_uid_":68,"name_place":"แม่น้ำเมย","type2":"แหล่งน้ำ","type3":"แหล่งธรรมชาติท้องถิ่น","prov":"ตาก","amp":"แม่ระมาด","tam":"แม่ระมาด","reg":"ภาคเหนือ"}},
{"type":"Feature","geometry":{"type":"Point","coordinates":[100.01562945554105,9.571706639895426]},"properties":{"_uid_":69,"name_place":"แม่น้ำวิลล่า","type2":"แหล่งน้ำ","type3":"แหล่งธรรมชาติท้องถิ่น","prov":"สุราษฎร์ธานี","amp":"เกาะสมุย","tam":"แม่น้ำ","reg":"ภาคใต้"}},
{"type":"Feature","geometry":{"type":"Point","coordinates":[105.50318333893267,15.316887170461518]},"properties":{"_uid_":70,"name_place":"แม่น้ำสองสี","type2":"แหล่งน้ำ","type3":"แหล่งธรรมชาติท้องถิ่น","prov":"อุบลราชธานี","amp":"โขงเจียม","tam":"โขงเจียม","reg":"ภาคตะวันออกเฉียงเหนือ"}},
{"type":"Feature","geometry":{"type":"Point","coordinates":[102.05366777555066,12.471043752680945]},"properties":{"_uid_":71,"name_place":"อ่าวกระทิง","type2":"ชายหาด","type3":"แหล่งธรรมชาติท้องถิ่น","prov":"จันทบุรี","amp":"แหลมสิงห์","tam":"บางกะไชย","reg":"ภาคตะวันออก"}},
{"type":"Feature","geometry":{"type":"Point","coordinates":[101.44658003496541,12.576137122411078]},"properties":{"_uid_":72,"name_place":"อ่าวขาม","type2":"ชายหาด","type3":"แหล่งธรรมชาติท้องถิ่น","prov":"ระยอง","amp":"เมืองระยอง","tam":"เพ","reg":"ภาคตะวันออก"}},
{"type":"Feature","geometry":{"type":"Point","coordinates":[100.80107343989886,13.161702243624866]},"properties":{"_uid_":73,"name_place":"อ่าวเขาขาด","type2":"ชายหาด","type3":"แหล่งธรรมชาติท้องถิ่น","prov":"ชลบุรี","amp":"เกาะสีชัง","tam":"ท่าเทววงษ์","reg":"ภาคตะวันออก"}},
{"type":"Feature","geometry":{"type":"Point","coordinates":[101.90049183669005,12.573032486291973]},"properties":{"_uid_":74,"name_place":"อ่าวคุ้งกระเบน","type2":"ชายหาด","type3":"แหล่งธรรมชาติท้องถิ่น","prov":"จันทบุรี","amp":"ท่าใหม่","tam":"คลองขุด","reg":"ภาคตะวันออก"}},
{"type":"Feature","geometry":{"type":"Point","coordinates":[99.93348476068334,9.463371363422151]},"properties":{"_uid_":75,"name_place":"อ่าวตลิ่งงาม","type2":"ชายหาด","type3":"แหล่งธรรมชาติท้องถิ่น","prov":"สุราษฎร์ธานี","amp":"เกาะสมุย","tam":"ตลิ่งงาม","reg":"ภาคใต้"}},
{"type":"Feature","geometry":{"type":"Point","coordinates":[99.64056231737955,6.693414808084756]},"properties":{"_uid_":76,"name_place":"อ่าวตะโล๊ะพันเตมะละกา","type2":"ชายหาด","type3":"แหล่งธรรมชาติท้องถิ่น","prov":"สตูล","amp":"เมืองสตูล","tam":"เกาะสาหร่าย","reg":"ภาคใต้"}},
{"type":"Feature","geometry":{"type":"Point","coordinates":[102.53811239590449,11.702179177305275]},"properties":{"_uid_":77,"name_place":"อ่าวตาติ้น","type2":"ชายหาด","type3":"แหล่งธรรมชาติท้องถิ่น","prov":"ตราด","amp":"เกาะกูด","tam":"เกาะกูด","reg":"ภาคตะวันออก"}},
{"type":"Feature","geometry":{"type":"Point","coordinates":[100.05824551869205,9.770000624827567]},"properties":{"_uid_":78,"name_place":"อ่าวตาปาน","type2":"ชายหาด","type3":"แหล่งธรรมชาติท้องถิ่น","prov":"สุราษฎร์ธานี","amp":"เกาะพะงัน","tam":"บ้านใต้","reg":"ภาคใต้"}},
{"type":"Feature","geometry":{"type":"Point","coordinates":[98.53474043339577,8.070085770592161]},"properties":{"_uid_":79,"name_place":"อ่าวตีกุด","type2":"ชายหาด","type3":"แหล่งธรรมชาติท้องถิ่น","prov":"พังงา","amp":"เกาะยาว","tam":"เกาะยาวใหญ่","reg":"ภาคใต้"}},
{"type":"Feature","geometry":{"type":"Point","coordinates":[99.84413331482752,10.08229567215446]},"properties":{"_uid_":80,"name_place":"อ่าวโตนด","type2":"ชายหาด","type3":"แหล่งธรรมชาติท้องถิ่น","prov":"สุราษฎร์ธานี","amp":"เกาะพะงัน","tam":"เกาะเต่า","reg":"ภาคใต้"}},
{"type":"Feature","geometry":{"type":"Point","coordinates":[100.80472845410952,13.154264412818993]},"properties":{"_uid_":81,"name_place":"อ่าวถ้ำพระ","type2":"ชายหาด","type3":"แหล่งธรรมชาติท้องถิ่น","prov":"ชลบุรี","amp":"เกาะสีชัง","tam":"ท่าเทววงษ์","reg":"ภาคตะวันออก"}},
{"type":"Feature","geometry":{"type":"Point","coordinates":[98.83832979994314,8.004007993871573]},"properties":{"_uid_":82,"name_place":"อ่าวถ้ำพระนาง","type2":"ชายหาด","type3":"แหล่งธรรมชาติท้องถิ่น","prov":"กระบี่","amp":"เมืองกระบี่","tam":"อ่าวนาง","reg":"ภาคใต้"}},
{"type":"Feature","geometry":{"type":"Point","coordinates":[99.17517384093684,10.039962444862333]},"properties":{"_uid_":83,"name_place":"อ่าวท้องครก","type2":"ชายหาด","type3":"แหล่งธรรมชาติท้องถิ่น","prov":"ชุมพร","amp":"หลังสวน","tam":"บางน้ำจืด","reg":"ภาคใต้"}},
{"type":"Feature","geometry":{"type":"Point","coordinates":[100.06712238513421,9.476580388370087]},"properties":{"_uid_":84,"name_place":"อ่าวท้องตะเคียน","type2":"ชายหาด","type3":"แหล่งธรรมชาติท้องถิ่น","prov":"สุราษฎร์ธานี","amp":"เกาะสมุย","tam":"มะเร็ต","reg":"ภาคใต้"}},
{"type":"Feature","geometry":{"type":"Point","coordinates":[99.98906800486037,9.707471708169713]},"properties":{"_uid_":85,"name_place":"อ่าวท้องศาลา","type2":"ชายหาด","type3":"แหล่งธรรมชาติท้องถิ่น","prov":"สุราษฎร์ธานี","amp":"เกาะพะงัน","tam":"เกาะพะงัน","reg":"ภาคใต้"}},
{"type":"Feature","geometry":{"type":"Point","coordinates":[98.74820045716682,8.138703632864411]},"properties":{"_uid_":86,"name_place":"อ่าวท่าเลน","type2":"ชายหาด","type3":"แหล่งธรรมชาติท้องถิ่น","prov":"กระบี่","amp":"เมืองกระบี่","tam":"เขาทอง","reg":"ภาคใต้"}},
{"type":"Feature","geometry":{"type":"Point","coordinates":[97.8849452936975,9.455876069027084]},"properties":{"_uid_":87,"name_place":"อ่าวไทรเอน","type2":"ชายหาด","type3":"แหล่งธรรมชาติท้องถิ่น","prov":"พังงา","amp":"คุระบุรี","tam":"เกาะพระทอง","reg":"ภาคใต้"}},
{"type":"Feature","geometry":{"type":"Point","coordinates":[101.45961630578563,12.574357144455242]},"properties":{"_uid_":88,"name_place":"อ่าวน้อยหน่า","type2":"ชายหาด","type3":"แหล่งธรรมชาติท้องถิ่น","prov":"ระยอง","amp":"เมืองระยอง","tam":"เพ","reg":"ภาคตะวันออก"}},
{"type":"Feature","geometry":{"type":"Point","coordinates":[98.82117134363985,8.030555524744075]},"properties":{"_uid_":89,"name_place":"อ่าวนาง","type2":"ชายหาด","type3":"แหล่งธรรมชาติท้องถิ่น","prov":"กระบี่","amp":"เมืองกระบี่","tam":"อ่าวนาง","reg":"ภาคใต้"}},
{"type":"Feature","geometry":{"type":"Point","coordinates":[98.6368549066422,8.328535727212056]},"properties":{"_uid_":90,"name_place":"อ่าวน้ำ","type2":"ชายหาด","type3":"แหล่งธรรมชาติท้องถิ่น","prov":"กระบี่","amp":"อ่าวลึก","tam":"แหลมสัก","reg":"ภาคใต้"}},
{"type":"Feature","geometry":{"type":"Point","coordinates":[99.95194806127064,9.577808901166232]},"properties":{"_uid_":91,"name_place":"อ่าวบางบ่อ","type2":"ชายหาด","type3":"แหล่งธรรมชาติท้องถิ่น","prov":"สุราษฎร์ธานี","amp":"เกาะสมุย","tam":"แม่น้ำ","reg":"ภาคใต้"}},
{"type":"Feature","geometry":{"type":"Point","coordinates":[100.90861600822682,13.313782072707143]},"properties":{"_uid_":92,"name_place":"อ่าวบางโปร่ง","type2":"ชายหาด","type3":"แหล่งธรรมชาติท้องถิ่น","prov":"ชลบุรี","amp":"เมืองชลบุรี","tam":"แสนสุข","reg":"ภาคตะวันออก"}},
{"type":"Feature","geometry":{"type":"Point","coordinates":[102.29604485594724,11.989760974368155]},"properties":{"_uid_":93,"name_place":"อ่าวใบลาน","type2":"ชายหาด","type3":"แหล่งธรรมชาติท้องถิ่น","prov":"ตราด","amp":"เกาะช้าง","tam":"เกาะช้างใต้","reg":"ภาคตะวันออก"}},
{"type":"Feature","geometry":{"type":"Point","coordinates":[101.44819369907177,12.569618556101696]},"properties":{"_uid_":94,"name_place":"อ่าวพร้าว","type2":"ชายหาด","type3":"แหล่งธรรมชาติท้องถิ่น","prov":"ระยอง","amp":"เมืองระยอง","tam":"เพ","reg":"ภาคตะวันออก"}},
{"type":"Feature","geometry":{"type":"Point","coordinates":[99.53780790771472,6.831581940080825]},"properties":{"_uid_":95,"name_place":"อ่าวพังกาน้อย","type2":"ชายหาด","type3":"แหล่งธรรมชาติท้องถิ่น","prov":"สตูล","amp":"ละงู","tam":"ปากน้ำ","reg":"ภาคใต้"}},
{"type":"Feature","geometry":{"type":"Point","coordinates":[98.46115968996294,8.388633584482983]},"properties":{"_uid_":96,"name_place":"อ่าวพังงา","type2":"ชายหาด","type3":"แหล่งธรรมชาติท้องถิ่น","prov":"พังงา","amp":"ตะกั่วทุ่ง","tam":"กระโสม","reg":"ภาคใต้"}},
{"type":"Feature","geometry":{"type":"Point","coordinates":[100.0819671837508,9.571507570458088]},"properties":{"_uid_":97,"name_place":"อ่าวพึง","type2":"ชายหาด","type3":"แหล่งธรรมชาติท้องถิ่น","prov":"สุราษฎร์ธานี","amp":"เกาะสมุย","tam":"บ่อผุด","reg":"ภาคใต้"}},
{"type":"Feature","geometry":{"type":"Point","coordinates":[101.85805518840353,6.426304082602148]},"properties":{"_uid_":98,"name_place":"อ่าวมะนาว","type2":"ชายหาด","type3":"แหล่งธรรมชาติท้องถิ่น","prov":"นราธิวาส","amp":"เมืองนราธิวาส","tam":"กะลุวอเหนือ","reg":"ภาคใต้"}},
{"type":"Feature","geometry":{"type":"Point","coordinates":[102.29304544605436,12.04184393720298]},"properties":{"_uid_":99,"name_place":"อ่าวมะพร้าว","type2":"ชายหาด","type3":"แหล่งธรรมชาติท้องถิ่น","prov":"ตราด","amp":"เกาะช้าง","tam":"เกาะช้าง","reg":"ภาคตะวันออก"}},
{"type":"Feature","geometry":{"type":"Point","coordinates":[99.63434009275643,6.667659384107403]},"properties":{"_uid_":100,"name_place":"อ่าวเมาะและ","type2":"ชายหาด","type3":"แหล่งธรรมชาติท้องถิ่น","prov":"สตูล","amp":"เมืองสตูล","tam":"เกาะสาหร่าย","reg":"ภาคใต้"}},
{"type":"Feature","geometry":{"type":"Point","coordinates":[99.99640192447424,9.571115945329156]},"properties":{"_uid_":101,"name_place":"อ่าวแม่น้ำ","type2":"ชายหาด","type3":"แหล่งธรรมชาติท้องถิ่น","prov":"สุราษฎร์ธานี","amp":"เกาะสมุย","tam":"แม่น้ำ","reg":"ภาคใต้"}},
{"type":"Feature","geometry":{"type":"Point","coordinates":[97.86309303796664,9.452090229169238]},"properties":{"_uid_":102,"name_place":"อ่าวแม่ยาย","type2":"ชายหาด","type3":"แหล่งธรรมชาติท้องถิ่น","prov":"พังงา","amp":"คุระบุรี","tam":"เกาะพระทอง","reg":"ภาคใต้"}},
{"type":"Feature","geometry":{"type":"Point","coordinates":[99.9789864812008,9.793992296642678]},"properties":{"_uid_":103,"name_place":"อ่าวแม่หาด","type2":"ชายหาด","type3":"แหล่งธรรมชาติท้องถิ่น","prov":"สุราษฎร์ธานี","amp":"เกาะพะงัน","tam":"เกาะพะงัน","reg":"ภาคใต้"}},
{"type":"Feature","geometry":{"type":"Point","coordinates":[98.39554107614283,7.813099323830958]},"properties":{"_uid_":104,"name_place":"อ่าวยน","type2":"ชายหาด","type3":"แหล่งธรรมชาติท้องถิ่น","prov":"ภูเก็ต","amp":"เมืองภูเก็ต","tam":"วิชิต","reg":"ภาคใต้"}},
{"type":"Feature","geometry":{"type":"Point","coordinates":[102.04438814047947,12.475654021176917]},"properties":{"_uid_":105,"name_place":"อ่าวยาง","type2":"ชายหาด","type3":"แหล่งธรรมชาติท้องถิ่น","prov":"จันทบุรี","amp":"แหลมสิงห์","tam":"บางกะไชย","reg":"ภาคตะวันออก"}},
{"type":"Feature","geometry":{"type":"Point","coordinates":[98.83688842330031,8.009373904825365]},"properties":{"_uid_":106,"name_place":"อ่าวไร่เลย์ตะวันตก","type2":"ชายหาด","type3":"แหล่งธรรมชาติท้องถิ่น","prov":"กระบี่","amp":"เมืองกระบี่","tam":"อ่าวนาง","reg":"ภาคใต้"}},
{"type":"Feature","geometry":{"type":"Point","coordinates":[98.56943140280343,7.973994978210508]},"properties":{"_uid_":107,"name_place":"อ่าวโละปาแรด","type2":"ชายหาด","type3":"แหล่งธรรมชาติท้องถิ่น","prov":"พังงา","amp":"เกาะยาว","tam":"พรุใน","reg":"ภาคใต้"}},
{"type":"Feature","geometry":{"type":"Point","coordinates":[99.96064138362803,9.76428994478369]},"properties":{"_uid_":108,"name_place":"อ่าวศรีธนู","type2":"ชายหาด","type3":"แหล่งธรรมชาติท้องถิ่น","prov":"สุราษฎร์ธานี","amp":"เกาะพะงัน","tam":"เกาะพะงัน","reg":"ภาคใต้"}},
{"type":"Feature","geometry":{"type":"Point","coordinates":[102.56867544812113,11.70310147187886]},"properties":{"_uid_":109,"name_place":"อ่าวสลัด","type2":"ชายหาด","type3":"แหล่งธรรมชาติท้องถิ่น","prov":"ตราด","amp":"เกาะกูด","tam":"เกาะกูด","reg":"ภาคตะวันออก"}},
{"type":"Feature","geometry":{"type":"Point","coordinates":[98.38996817314514,7.960970859633706]},"properties":{"_uid_":110,"name_place":"อ่าวสะปำ","type2":"ชายหาด","type3":"แหล่งธรรมชาติท้องถิ่น","prov":"ภูเก็ต","amp":"เมืองภูเก็ต","tam":"เกาะแก้ว","reg":"ภาคใต้"}},
{"type":"Feature","geometry":{"type":"Point","coordinates":[99.93649130816131,9.505815544473288]},"properties":{"_uid_":111,"name_place":"อ่าวแหลมดิน","type2":"ชายหาด","type3":"แหล่งธรรมชาติท้องถิ่น","prov":"สุราษฎร์ธานี","amp":"เกาะสมุย","tam":"ลิปะน้อย","reg":"ภาคใต้"}},
{"type":"Feature","geometry":{"type":"Point","coordinates":[102.58997477476561,11.605560340056359]},"properties":{"_uid_":112,"name_place":"อ่าวใหญ่","type2":"ชายหาด","type3":"แหล่งธรรมชาติท้องถิ่น","prov":"ตราด","amp":"เกาะกูด","tam":"เกาะกูด","reg":"ภาคตะวันออก"}},
{"type":"Feature","geometry":{"type":"Point","coordinates":[100.80549471610274,13.145752413358577]},"properties":{"_uid_":113,"name_place":"อ่าวอัษฎางค์ (อ่าวถ้ำพัง)","type2":"ชายหาด","type3":"แหล่งธรรมชาติท้องถิ่น","prov":"ชลบุรี","amp":"เกาะสีชัง","tam":"ท่าเทววงษ์","reg":"ภาคตะวันออก"}},
{"type":"Feature","geometry":{"type":"Point","coordinates":[99.33146476018206,9.069626463318947]},"properties":{"_uid_":114,"name_place":"บึงขุนทะเล","type2":"แหล่งน้ำ","type3":"แหล่งธรรมชาติท้องถิ่น","prov":"สุราษฎร์ธานี","amp":"เมืองสุราษฎร์ธานี","tam":"ขุนทะเล","reg":"ภาคใต้"}},
{"type":"Feature","geometry":{"type":"Point","coordinates":[100.16826046814086,6.710154017819434]},"properties":{"_uid_":115,"name_place":"บึงทะเลบัน","type2":"แหล่งน้ำ","type3":"แหล่งธรรมชาติท้องถิ่น","prov":"สตูล","amp":"ควนโดน","tam":"วังประจัน","reg":"ภาคใต้"}},
{"type":"Feature","geometry":{"type":"Point","coordinates":[100.1263490563575,17.481616988047037]},"properties":{"_uid_":116,"name_place":"บึงทับกระดาน","type2":"แหล่งน้ำ","type3":"แหล่งธรรมชาติท้องถิ่น","prov":"อุตรดิตถ์","amp":"ตรอน","tam":"วังแดง","reg":"ภาคเหนือ"}},
{"type":"Feature","geometry":{"type":"Point","coordinates":[100.0426748418691,15.316214615812646]},"properties":{"_uid_":117,"name_place":"บึงทับแต้","type2":"แหล่งน้ำ","type3":"แหล่งธรรมชาติท้องถิ่น","prov":"อุทัยธานี","amp":"เมืองอุทัยธานี","tam":"ท่าซุง","reg":"ภาคเหนือ"}},
{"type":"Feature","geometry":{"type":"Point","coordinates":[104.36088656128268,14.761667026770018]},"properties":{"_uid_":118,"name_place":"บึงนกเป็ดน้ำไพรบึง","type2":"แหล่งน้ำ","type3":"แหล่งธรรมชาติท้องถิ่น","prov":"ศรีสะเกษ","amp":"ไพรบึง","tam":"ไพรบึง","reg":"ภาคตะวันออกเฉียงเหนือ"}},
{"type":"Feature","geometry":{"type":"Point","coordinates":[103.06306772583895,16.255940112437152]},"properties":{"_uid_":119,"name_place":"บึงบอน","type2":"แหล่งน้ำ","type3":"แหล่งธรรมชาติท้องถิ่น","prov":"มหาสารคาม","amp":"โกสุมพิสัย","tam":"หัวขวาง","reg":"ภาคตะวันออกเฉียงเหนือ"}},
{"type":"Feature","geometry":{"type":"Point","coordinates":[100.100073842749,14.75872321869147]},"properties":{"_uid_":120,"name_place":"บึงระหาร","type2":"แหล่งน้ำ","type3":"แหล่งธรรมชาติท้องถิ่น","prov":"สุพรรณบุรี","amp":"สามชุก","tam":"สามชุก","reg":"ภาคตะวันตก"}},
{"type":"Feature","geometry":{"type":"Point","coordinates":[101.88894536637358,15.615273494571221]},"properties":{"_uid_":121,"name_place":"บึงละหาน","type2":"แหล่งน้ำ","type3":"แหล่งธรรมชาติท้องถิ่น","prov":"ชัยภูมิ","amp":"จัตุรัส","tam":"หนองบัวใหญ่","reg":"ภาคตะวันออกเฉียงเหนือ"}},
{"type":"Feature","geometry":{"type":"Point","coordinates":[100.80946942599141,14.588190579658628]},"properties":{"_uid_":122,"name_place":"บึงวัดเพชร","type2":"แหล่งน้ำ","type3":"แหล่งธรรมชาติท้องถิ่น","prov":"สระบุรี","amp":"เสาไห้","tam":"บ้านยาง","reg":"ภาคกลาง"}},
{"type":"Feature","geometry":{"type":"Point","coordinates":[101.04292317913165,15.774044822450307]},"properties":{"_uid_":123,"name_place":"บึงสามพัน","type2":"แหล่งน้ำ","type3":"แหล่งธรรมชาติท้องถิ่น","prov":"เพชรบูรณ์","amp":"บึงสามพัน","tam":"บึงสามพัน","reg":"ภาคเหนือ"}},
{"type":"Feature","geometry":{"type":"Point","coordinates":[100.09271090651796,14.665392543919376]},"properties":{"_uid_":124,"name_place":"บึงหนองจอก","type2":"แหล่งน้ำ","type3":"แหล่งธรรมชาติท้องถิ่น","prov":"สุพรรณบุรี","amp":"ศรีประจันต์","tam":"วังหว้า","reg":"ภาคตะวันตก"}},
{"type":"Feature","geometry":{"type":"Point","coordinates":[99.10592398016932,9.723216927261085]},"properties":{"_uid_":125,"name_place":"บ่อน้ำพุร้อนถ้ำเขาพลู","type2":"โป่งพุร้อน","type3":"แหล่งธรรมชาติท้องถิ่น","prov":"ชุมพร","amp":"ละแม","tam":"สวนแตง","reg":"ภาคใต้"}},
{"type":"Feature","geometry":{"type":"Point","coordinates":[98.39616354623409,18.271259727278313]},"properties":{"_uid_":126,"name_place":"บ่อน้ำพุร้อนเทพพนม","type2":"โป่งพุร้อน","type3":"แหล่งธรรมชาติท้องถิ่น","prov":"เชียงใหม่","amp":"แม่แจ่ม","tam":"กองแขก","reg":"ภาคเหนือ"}},
{"type":"Feature","geometry":{"type":"Point","coordinates":[99.15168603036872,19.41783957972816]},"properties":{"_uid_":127,"name_place":"บ่อน้ำพุร้อนบ้านหนองครก","type2":"โป่งพุร้อน","type3":"แหล่งธรรมชาติท้องถิ่น","prov":"เชียงใหม่","amp":"พร้าว","tam":"สันทราย","reg":"ภาคเหนือ"}},
{"type":"Feature","geometry":{"type":"Point","coordinates":[99.46865836327392,16.65881605268065]},"properties":{"_uid_":128,"name_place":"บ่อน้ำพุร้อนพระร่วง (บึง","type2":"โป่งพุร้อน","type3":"แหล่งธรรมชาติท้องถิ่น","prov":"กำแพงเพชร","amp":"พรานกระต่าย","tam":"ท่าไม้","reg":"ภาคเหนือ"}},
{"type":"Feature","geometry":{"type":"Point","coordinates":[99.63780223293855,17.980542315671034]},"properties":{"_uid_":129,"name_place":"บ่อน้ำพุร้อนแม่จอก","type2":"โป่งพุร้อน","type3":"แหล่งธรรมชาติท้องถิ่น","prov":"แพร่","amp":"วังชิ้น","tam":"แม่ป้าก","reg":"ภาคเหนือ"}},
{"type":"Feature","geometry":{"type":"Point","coordinates":[99.82922289183009,18.092503577595227]},"properties":{"_uid_":130,"name_place":"บ่อน้ำพุร้อนวัดสะแล่ง","type2":"โป่งพุร้อน","type3":"แหล่งธรรมชาติท้องถิ่น","prov":"แพร่","amp":"ลอง","tam":"ห้วยอ้อ","reg":"ภาคเหนือ"}},
{"type":"Feature","geometry":{"type":"Point","coordinates":[99.60087463009907,13.152555935778276]},"properties":{"_uid_":131,"name_place":"บ่อน้ำพุร้อนหนองหญ้าปล้","type2":"โป่งพุร้อน","type3":"แหล่งธรรมชาติท้องถิ่น","prov":"เพชรบุรี","amp":"หนองหญ้าปล้อง","tam":"ยางน้ำกลัดเหนือ","reg":"ภาคตะวันตก"}},
{"type":"Feature","geometry":{"type":"Point","coordinates":[99.7436229334857,19.635901916301176]},"properties":{"_uid_":132,"name_place":"บ่อน้ำพุร้อนห้วยทรายขาว","type2":"โป่งพุร้อน","type3":"แหล่งธรรมชาติท้องถิ่น","prov":"เชียงราย","amp":"พาน","tam":"ทรายขาว","reg":"ภาคเหนือ"}},
{"type":"Feature","geometry":{"type":"Point","coordinates":[98.44693501081467,8.760566872463032]},"properties":{"_uid_":133,"name_place":"บ่อน้ำพุร้อนอำเภอกะปง","type2":"โป่งพุร้อน","type3":"แหล่งธรรมชาติท้องถิ่น","prov":"พังงา","amp":"กะปง","tam":"เหล","reg":"ภาคใต้"}},
{"type":"Feature","geometry":{"type":"Point","coordinates":[99.1544144199548,19.965903463758394]},"properties":{"_uid_":134,"name_place":"บ่อน้ำพุร้อนอุทยานแห่งช","type2":"โป่งพุร้อน","type3":"แหล่งธรรมชาติท้องถิ่น","prov":"เชียงใหม่","amp":"ฝาง","tam":"โป่งน้ำร้อน","reg":"ภาคเหนือ"}},
{"type":"Feature","geometry":{"type":"Point","coordinates":[98.6510890528162,9.95727079320655]},"properties":{"_uid_":135,"name_place":"บ่อน้ำร้อนพ่อ","type2":"โป่งพุร้อน","type3":"แหล่งธรรมชาติท้องถิ่น","prov":"ระนอง","amp":"เมืองระนอง","tam":"หาดส้มแป้น","reg":"ภาคใต้"}},
{"type":"Feature","geometry":{"type":"Point","coordinates":[100.858115853394,12.91020984949432]},"properties":{"_uid_":136,"name_place":"แหลมไม้รวก","type2":"ชายหาด","type3":"แหล่งธรรมชาติท้องถิ่น","prov":"ชลบุรี","amp":"บางละมุง","tam":"หนองปรือ","reg":"ภาคตะวันออก"}},
{"type":"Feature","geometry":{"type":"Point","coordinates":[98.63210139578675,9.904690401359842]},"properties":{"_uid_":137,"name_place":"บ่อน้ำร้อนพุหลุมพี","type2":"โป่งพุร้อน","type3":"แหล่งธรรมชาติท้องถิ่น","prov":"ระนอง","amp":"เมืองระนอง","tam":"บางริ้น","reg":"ภาคใต้"}},
{"type":"Feature","geometry":{"type":"Point","coordinates":[98.37798358794043,19.202565591862232]},"properties":{"_uid_":138,"name_place":"โป่งน้ำร้อน","type2":"โป่งพุร้อน","type3":"แหล่งธรรมชาติท้องถิ่น","prov":"แม่ฮ่องสอน","amp":"ปาย","tam":"เมืองแปง","reg":"ภาคเหนือ"}},
{"type":"Feature","geometry":{"type":"Point","coordinates":[98.47623924647672,19.311075077654362]},"properties":{"_uid_":139,"name_place":"โป่งน้ำร้อนท่าปาย","type2":"โป่งพุร้อน","type3":"แหล่งธรรมชาติท้องถิ่น","prov":"แม่ฮ่องสอน","amp":"ปาย","tam":"แม่ฮี้","reg":"ภาคเหนือ"}},
{"type":"Feature","geometry":{"type":"Point","coordinates":[99.46320596496209,19.114070787087904]},"properties":{"_uid_":140,"name_place":"โป่งน้ำร้อนบ่อน้ำร้อนธร","type2":"โป่งพุร้อน","type3":"แหล่งธรรมชาติท้องถิ่น","prov":"เชียงราย","amp":"เวียงป่าเป้า","tam":"แม่เจดีย์ใหม่","reg":"ภาคเหนือ"}},
{"type":"Feature","geometry":{"type":"Point","coordinates":[99.57810224352546,19.717662769670618]},"properties":{"_uid_":141,"name_place":"โป่งน้ำร้อนปูเฟือง","type2":"โป่งพุร้อน","type3":"แหล่งธรรมชาติท้องถิ่น","prov":"เชียงราย","amp":"แม่สรวย","tam":"แม่สรวย","reg":"ภาคเหนือ"}},
{"type":"Feature","geometry":{"type":"Point","coordinates":[99.35725768919353,13.511894067243407]},"properties":{"_uid_":142,"name_place":"โป่งยุบหุตายน","type2":"โป่งพุร้อน","type3":"แหล่งธรรมชาติท้องถิ่น","prov":"ราชบุรี","amp":"สวนผึ้ง","tam":"ท่าเคย","reg":"ภาคตะวันตก"}},
{"type":"Feature","geometry":{"type":"Point","coordinates":[102.39749440184795,12.180741648220653]},"properties":{"_uid_":143,"name_place":"แหลมงอบแคมป์ปิ้ง","type2":"ชายหาด","type3":"แหล่งธรรมชาติท้องถิ่น","prov":"ตราด","amp":"แหลมงอบ","tam":"แหลมงอบ","reg":"ภาคตะวันออก"}},
{"type":"Feature","geometry":{"type":"Point","coordinates":[100.22413157078867,7.496923254029076]},"properties":{"_uid_":144,"name_place":"แหลมจองถนน","type2":"ชายหาด","type3":"แหล่งธรรมชาติท้องถิ่น","prov":"พัทลุง","amp":"เขาชัยสน","tam":"จองถนน","reg":"ภาคใต้"}},
{"type":"Feature","geometry":{"type":"Point","coordinates":[99.92131564723482,9.490483866484036]},"properties":{"_uid_":145,"name_place":"แหลมโจรคล่ำ","type2":"ชายหาด","type3":"แหล่งธรรมชาติท้องถิ่น","prov":"สุราษฎร์ธานี","amp":"เกาะสมุย","tam":"ลิปะน้อย","reg":"ภาคใต้"}},
{"type":"Feature","geometry":{"type":"Point","coordinates":[100.8501640565134,12.653241316498374]},"properties":{"_uid_":146,"name_place":"แหลมฉลาก","type2":"ชายหาด","type3":"แหล่งธรรมชาติท้องถิ่น","prov":"ชลบุรี","amp":"สัตหีบ","tam":"สัตหีบ","reg":"ภาคตะวันออก"}},
{"type":"Feature","geometry":{"type":"Point","coordinates":[100.14234647968674,8.513641551432494]},"properties":{"_uid_":147,"name_place":"แหลมตะลุมพุก","type2":"ชายหาด","type3":"แหล่งธรรมชาติท้องถิ่น","prov":"นครศรีธรรมราช","amp":"ปากพนัง","tam":"แหลมตะลุมพุก","reg":"ภาคใต้"}},
{"type":"Feature","geometry":{"type":"Point","coordinates":[99.59651306757272,6.601272419893159]},"properties":{"_uid_":148,"name_place":"แหลมตันหยงบาอ๊ะ","type2":"ชายหาด","type3":"แหล่งธรรมชาติท้องถิ่น","prov":"สตูล","amp":"เมืองสตูล","tam":"เกาะสาหร่าย","reg":"ภาคใต้"}},
{"type":"Feature","geometry":{"type":"Point","coordinates":[99.64518448673708,6.737467616293348]},"properties":{"_uid_":149,"name_place":"แหลมตันหยงมะระ","type2":"ชายหาด","type3":"แหล่งธรรมชาติท้องถิ่น","prov":"สตูล","amp":"เมืองสตูล","tam":"เกาะสาหร่าย","reg":"ภาคใต้"}},
{"type":"Feature","geometry":{"type":"Point","coordinates":[102.55297070466797,11.758369118706074]},"properties":{"_uid_":150,"name_place":"แหลมตาตุ่ย","type2":"ชายหาด","type3":"แหล่งธรรมชาติท้องถิ่น","prov":"ตราด","amp":"เกาะกูด","tam":"เกาะกูด","reg":"ภาคตะวันออก"}},
{"type":"Feature","geometry":{"type":"Point","coordinates":[100.80372495276559,13.137859589675855]},"properties":{"_uid_":151,"name_place":"แหลมตุ๊กตา","type2":"ชายหาด","type3":"แหล่งธรรมชาติท้องถิ่น","prov":"ชลบุรี","amp":"เกาะสีชัง","tam":"ท่าเทววงษ์","reg":"ภาคตะวันออก"}},
{"type":"Feature","geometry":{"type":"Point","coordinates":[99.36248126409733,10.673141512742479]},"properties":{"_uid_":152,"name_place":"แหลมแท่น","type2":"ชายหาด","type3":"แหล่งธรรมชาติท้องถิ่น","prov":"ชุมพร","amp":"ปะทิว","tam":"ชุมโค","reg":"ภาคใต้"}},
{"type":"Feature","geometry":{"type":"Point","coordinates":[99.93352119701407,9.576987260409377]},"properties":{"_uid_":153,"name_place":"แหลมน้อย","type2":"ชายหาด","type3":"แหล่งธรรมชาติท้องถิ่น","prov":"สุราษฎร์ธานี","amp":"เกาะสมุย","tam":"แม่น้ำ","reg":"ภาคใต้"}},
{"type":"Feature","geometry":{"type":"Point","coordinates":[103.46699316673656,16.710358900146748]},"properties":{"_uid_":154,"name_place":"แหลมโนนวิเศษ","type2":"ชายหาด","type3":"แหล่งธรรมชาติท้องถิ่น","prov":"กาฬสินธุ์","amp":"สหัสขันธ์","tam":"โนนบุรี","reg":"ภาคตะวันออกเฉียงเหนือ"}},
{"type":"Feature","geometry":{"type":"Point","coordinates":[103.99640642156497,16.290315215151697]},"properties":{"_uid_":155,"name_place":"แหลมพยอม","type2":"ชายหาด","type3":"แหล่งธรรมชาติท้องถิ่น","prov":"ร้อยเอ็ด","amp":"โพนทอง","tam":"แวง","reg":"ภาคตะวันออกเฉียงเหนือ"}},
{"type":"Feature","geometry":{"type":"Point","coordinates":[101.44654044103059,12.579238044214502]},"properties":{"_uid_":156,"name_place":"แหลมพระ","type2":"ชายหาด","type3":"แหล่งธรรมชาติท้องถิ่น","prov":"ระยอง","amp":"เมืองระยอง","tam":"เพ","reg":"ภาคตะวันออก"}},
{"type":"Feature","geometry":{"type":"Point","coordinates":[98.25891636917471,7.934900619307372]},"properties":{"_uid_":157,"name_place":"แหลมยมดึง","type2":"ชายหาด","type3":"แหล่งธรรมชาติท้องถิ่น","prov":"ภูเก็ต","amp":"กะทู้","tam":"กมลา","reg":"ภาคใต้"}},
{"type":"Feature","geometry":{"type":"Point","coordinates":[101.44718604144177,12.557812900505109]},"properties":{"_uid_":158,"name_place":"แหลมเรือแตก","type2":"ชายหาด","type3":"แหล่งธรรมชาติท้องถิ่น","prov":"ระยอง","amp":"เมืองระยอง","tam":"เพ","reg":"ภาคตะวันออก"}},
{"type":"Feature","geometry":{"type":"Point","coordinates":[98.26363474253661,7.886379316005696]},"properties":{"_uid_":159,"name_place":"แหลมลำเจียก","type2":"ชายหาด","type3":"แหล่งธรรมชาติท้องถิ่น","prov":"ภูเก็ต","amp":"กะทู้","tam":"ป่าตอง","reg":"ภาคใต้"}},
{"type":"Feature","geometry":{"type":"Point","coordinates":[98.27210666153759,7.986445224347117]},"properties":{"_uid_":160,"name_place":"แหลมสน","type2":"ชายหาด","type3":"แหล่งธรรมชาติท้องถิ่น","prov":"ภูเก็ต","amp":"ถลาง","tam":"เชิงทะเล","reg":"ภาคใต้"}},
{"type":"Feature","geometry":{"type":"Point","coordinates":[98.27767023469644,7.970375834857443]},"properties":{"_uid_":161,"name_place":"แหลมสิงห์","type2":"ชายหาด","type3":"แหล่งธรรมชาติท้องถิ่น","prov":"ภูเก็ต","amp":"กะทู้","tam":"กมลา","reg":"ภาคใต้"}},
{"type":"Feature","geometry":{"type":"Point","coordinates":[101.89531381104483,12.571549063296581]},"properties":{"_uid_":162,"name_place":"แหลมเสด็จ","type2":"ชายหาด","type3":"แหล่งธรรมชาติท้องถิ่น","prov":"จันทบุรี","amp":"ท่าใหม่","tam":"คลองขุด","reg":"ภาคตะวันออก"}},
{"type":"Feature","geometry":{"type":"Point","coordinates":[103.4587237746158,17.255724259394725]},"properties":{"_uid_":163,"name_place":"ผาดงก่อ","type2":"ภูเขา","type3":"แหล่งธรรมชาติท้องถิ่น","prov":"สกลนคร","amp":"ส่องดาว","tam":"ท่าศิลา","reg":"ภาคตะวันออกเฉียงเหนือ"}},
{"type":"Feature","geometry":{"type":"Point","coordinates":[98.37107857056716,19.21413179738143]},"properties":{"_uid_":164,"name_place":"น้ำพุร้อนเมืองแปง","type2":"โป่งพุร้อน","type3":"แหล่งธรรมชาติท้องถิ่น","prov":"แม่ฮ่องสอน","amp":"ปาย","tam":"เมืองแปง","reg":"ภาคเหนือ"}},
{"type":"Feature","geometry":{"type":"Point","coordinates":[99.51534811678842,15.341049091806129]},"properties":{"_uid_":165,"name_place":"น้ำพุร้อนสมอทอง","type2":"โป่งพุร้อน","type3":"แหล่งธรรมชาติท้องถิ่น","prov":"อุทัยธานี","amp":"ห้วยคต","tam":"ทองหลาง","reg":"ภาคเหนือ"}},
{"type":"Feature","geometry":{"type":"Point","coordinates":[98.76081660614486,14.545626716780165]},"properties":{"_uid_":166,"name_place":"น้ำพุร้อนหนองเจริญ","type2":"โป่งพุร้อน","type3":"แหล่งธรรมชาติท้องถิ่น","prov":"กาญจนบุรี","amp":"ทองผาภูมิ","tam":"ลิ่นถิ่น","reg":"ภาคตะวันตก"}},
{"type":"Feature","geometry":{"type":"Point","coordinates":[97.96010235116918,18.666635812245893]},"properties":{"_uid_":167,"name_place":"น้ำพุร้อนหนองแห้ง","type2":"โป่งพุร้อน","type3":"แหล่งธรรมชาติท้องถิ่น","prov":"แม่ฮ่องสอน","amp":"ขุนยวม","tam":"เมืองปอน","reg":"ภาคเหนือ"}},
{"type":"Feature","geometry":{"type":"Point","coordinates":[98.74091182847138,14.630679115703996]},"properties":{"_uid_":168,"name_place":"น้ำพุร้อนหินดาด","type2":"โป่งพุร้อน","type3":"แหล่งธรรมชาติท้องถิ่น","prov":"กาญจนบุรี","amp":"ทองผาภูมิ","tam":"หินดาด","reg":"ภาคตะวันตก"}},
{"type":"Feature","geometry":{"type":"Point","coordinates":[99.62953565541707,20.16737690193157]},"properties":{"_uid_":169,"name_place":"ดอยแม่สลอง (บ้านสันติคีร","type2":"ภูเขา","type3":"แหล่งธรรมชาติท้องถิ่น","prov":"เชียงราย","amp":"แม่ฟ้าหลวง","tam":"แม่สลองนอก","reg":"ภาคเหนือ"}},
{"type":"Feature","geometry":{"type":"Point","coordinates":[101.74868675880356,16.8571736606184]},"properties":{"_uid_":170,"name_place":"ผาแดง","type2":"ภูเขา","type3":"แหล่งธรรมชาติท้องถิ่น","prov":"เลย","amp":"ภูกระดึง","tam":"ศรีฐาน","reg":"ภาคตะวันออกเฉียงเหนือ"}},
{"type":"Feature","geometry":{"type":"Point","coordinates":[98.7363955012232,17.68482719226264]},"properties":{"_uid_":171,"name_place":"ผาเต่า","type2":"ภูเขา","type3":"แหล่งธรรมชาติท้องถิ่น","prov":"ลำพูน","amp":"ลี้","tam":"ก้อ","reg":"ภาคเหนือ"}},
{"type":"Feature","geometry":{"type":"Point","coordinates":[101.80051377045741,16.892530271180597]},"properties":{"_uid_":172,"name_place":"ผานกแอ่น","type2":"ภูเขา","type3":"แหล่งธรรมชาติท้องถิ่น","prov":"เลย","amp":"ภูกระดึง","tam":"ศรีฐาน","reg":"ภาคตะวันออกเฉียงเหนือ"}},
{"type":"Feature","geometry":{"type":"Point","coordinates":[103.9671364354536,17.05784730877539]},"properties":{"_uid_":173,"name_place":"ผานางเมินและลานสาวเอ้","type2":"ภูเขา","type3":"แหล่งธรรมชาติท้องถิ่น","prov":"สกลนคร","amp":"กุดบาก","tam":"นาม่อง","reg":"ภาคตะวันออกเฉียงเหนือ"}},
{"type":"Feature","geometry":{"type":"Point","coordinates":[101.15772767011552,14.506175746615371]},"properties":{"_uid_":174,"name_place":"ผานางอาย","type2":"ภูเขา","type3":"แหล่งธรรมชาติท้องถิ่น","prov":"สระบุรี","amp":"แก่งคอย","tam":"ชำผักแพว","reg":"ภาคกลาง"}},
{"type":"Feature","geometry":{"type":"Point","coordinates":[101.77944069217592,16.86378965235157]},"properties":{"_uid_":175,"name_place":"ผานาน้อย","type2":"ภูเขา","type3":"แหล่งธรรมชาติท้องถิ่น","prov":"เลย","amp":"ภูกระดึง","tam":"ศรีฐาน","reg":"ภาคตะวันออกเฉียงเหนือ"}},
{"type":"Feature","geometry":{"type":"Point","coordinates":[103.86781050021159,16.457770217674003]},"properties":{"_uid_":176,"name_place":"ผาน้ำจ้าก","type2":"ภูเขา","type3":"แหล่งธรรมชาติท้องถิ่น","prov":"ร้อยเอ็ด","amp":"โพธิ์ชัย","tam":"คำพอุง","reg":"ภาคตะวันออกเฉียงเหนือ"}},
{"type":"Feature","geometry":{"type":"Point","coordinates":[98.73190238817955,17.679418270455724]},"properties":{"_uid_":177,"name_place":"ผาผางประทีป","type2":"ภูเขา","type3":"แหล่งธรรมชาติท้องถิ่น","prov":"ลำพูน","amp":"ลี้","tam":"ก้อ","reg":"ภาคเหนือ"}},
{"type":"Feature","geometry":{"type":"Point","coordinates":[98.69128299515822,17.656281174178392]},"properties":{"_uid_":178,"name_place":"ผาผึ้ง","type2":"ภูเขา","type3":"แหล่งธรรมชาติท้องถิ่น","prov":"ลำพูน","amp":"ลี้","tam":"ก้อ","reg":"ภาคเหนือ"}},
{"type":"Feature","geometry":{"type":"Point","coordinates":[101.41978450294707,15.776397355196625]},"properties":{"_uid_":179,"name_place":"ผาพ่อเมือง","type2":"ภูเขา","type3":"แหล่งธรรมชาติท้องถิ่น","prov":"ชัยภูมิ","amp":"เทพสถิต","tam":"โป่งนก","reg":"ภาคตะวันออกเฉียงเหนือ"}},
{"type":"Feature","geometry":{"type":"Point","coordinates":[104.02461783226293,17.363365071399983]},"properties":{"_uid_":180,"name_place":"ผามอดินแดง","type2":"ภูเขา","type3":"แหล่งธรรมชาติท้องถิ่น","prov":"สกลนคร","amp":"เมืองสกลนคร","tam":"หนองลาด","reg":"ภาคตะวันออกเฉียงเหนือ"}},
{"type":"Feature","geometry":{"type":"Point","coordinates":[98.70487261456655,17.553765291724545]},"properties":{"_uid_":181,"name_place":"ผามุย (ผาค้อน)","type2":"ภูเขา","type3":"แหล่งธรรมชาติท้องถิ่น","prov":"ลำพูน","amp":"ลี้","tam":"ก้อ","reg":"ภาคเหนือ"}},
{"type":"Feature","geometry":{"type":"Point","coordinates":[98.69802078528784,17.580355062332416]},"properties":{"_uid_":182,"name_place":"ผาแมว","type2":"ภูเขา","type3":"แหล่งธรรมชาติท้องถิ่น","prov":"ลำพูน","amp":"ลี้","tam":"ก้อ","reg":"ภาคเหนือ"}},
{"type":"Feature","geometry":{"type":"Point","coordinates":[98.45538878193346,18.525233933034773]},"properties":{"_uid_":183,"name_place":"ผาสำราญ","type2":"ภูเขา","type3":"แหล่งธรรมชาติท้องถิ่น","prov":"เชียงใหม่","amp":"แม่แจ่ม","tam":"ช่างเคิ่ง","reg":"ภาคเหนือ"}},
{"type":"Feature","geometry":{"type":"Point","coordinates":[105.51989525750534,15.402501855368536]},"properties":{"_uid_":184,"name_place":"ผาหมอน","type2":"ภูเขา","type3":"แหล่งธรรมชาติท้องถิ่น","prov":"อุบลราชธานี","amp":"โขงเจียม","tam":"ห้วยไผ่","reg":"ภาคตะวันออกเฉียงเหนือ"}},
{"type":"Feature","geometry":{"type":"Point","coordinates":[101.7906081276976,16.86510656017786]},"properties":{"_uid_":185,"name_place":"ผาหมากดูก","type2":"ภูเขา","type3":"แหล่งธรรมชาติท้องถิ่น","prov":"เลย","amp":"ภูกระดึง","tam":"ศรีฐาน","reg":"ภาคตะวันออกเฉียงเหนือ"}},
{"type":"Feature","geometry":{"type":"Point","coordinates":[101.72713206667036,16.85931857247917]},"properties":{"_uid_":186,"name_place":"ผาหล่มสัก","type2":"ภูเขา","type3":"แหล่งธรรมชาติท้องถิ่น","prov":"เลย","amp":"ภูกระดึง","tam":"ศรีฐาน","reg":"ภาคตะวันออกเฉียงเหนือ"}},
{"type":"Feature","geometry":{"type":"Point","coordinates":[100.82883336380986,18.37223881573794]},"properties":{"_uid_":187,"name_place":"ผาหัวสิงห์","type2":"ภูเขา","type3":"แหล่งธรรมชาติท้องถิ่น","prov":"น่าน","amp":"นาน้อย","tam":"ศรีษะเกษ","reg":"ภาคเหนือ"}},
{"type":"Feature","geometry":{"type":"Point","coordinates":[103.87040273570612,16.458220011828082]},"properties":{"_uid_":188,"name_place":"ผาหำหด","type2":"ภูเขา","type3":"แหล่งธรรมชาติท้องถิ่น","prov":"ร้อยเอ็ด","amp":"โพธิ์ชัย","tam":"คำพอุง","reg":"ภาคตะวันออกเฉียงเหนือ"}},
{"type":"Feature","geometry":{"type":"Point","coordinates":[100.30093974469284,7.41103225986251]},"properties":{"_uid_":189,"name_place":"เกาะกระ","type2":"เกาะ","type3":"แหล่งธรรมชาติท้องถิ่น","prov":"พัทลุง","amp":"ปากพะยูน","tam":"เกาะหมาก","reg":"ภาคใต้"}},
{"type":"Feature","geometry":{"type":"Point","coordinates":[105.268646011833,14.424775591704421]},"properties":{"_uid_":190,"name_place":"แก่ง 3000 ปี","type2":"แก่ง","type3":"แหล่งธรรมชาติท้องถิ่น","prov":"อุบลราชธานี","amp":"นาจะหลวย","tam":"นาจะหลวย","reg":"ภาคตะวันออกเฉียงเหนือ"}},
{"type":"Feature","geometry":{"type":"Point","coordinates":[104.73417669800624,16.802072328082257]},"properties":{"_uid_":191,"name_place":"แก่งกระเบา","type2":"แก่ง","type3":"แหล่งธรรมชาติท้องถิ่น","prov":"มุกดาหาร","amp":"หว้านใหญ่","tam":"ป่งขาม","reg":"ภาคตะวันออกเฉียงเหนือ"}},
{"type":"Feature","geometry":{"type":"Point","coordinates":[105.27833821956611,14.43151993722572]},"properties":{"_uid_":192,"name_place":"แก่งกะเลา","type2":"แก่ง","type3":"แหล่งธรรมชาติท้องถิ่น","prov":"อุบลราชธานี","amp":"นาจะหลวย","tam":"นาจะหลวย","reg":"ภาคตะวันออกเฉียงเหนือ"}},
{"type":"Feature","geometry":{"type":"Point","coordinates":[99.26721238172878,16.33224501814512]},"properties":{"_uid_":193,"name_place":"แก่งเกาะร้อย","type2":"แก่ง","type3":"แหล่งธรรมชาติท้องถิ่น","prov":"กำแพงเพชร","amp":"คลองลาน","tam":"สักงาม","reg":"ภาคเหนือ"}},
{"type":"Feature","geometry":{"type":"Point","coordinates":[99.36896318789644,15.916904624264731]},"properties":{"_uid_":194,"name_place":"แก่งเกาะใหญ่","type2":"แก่ง","type3":"แหล่งธรรมชาติท้องถิ่น","prov":"นครสวรรค์","amp":"แม่วงก์","tam":"แม่เล่ย์","reg":"ภาคเหนือ"}},
{"type":"Feature","geometry":{"type":"Point","coordinates":[105.47154133212719,15.293112295684887]},"properties":{"_uid_":195,"name_place":"แก่งคันเหว่","type2":"แก่ง","type3":"แหล่งธรรมชาติท้องถิ่น","prov":"อุบลราชธานี","amp":"สิรินธร","tam":"คำเขื่อนแก้ว","reg":"ภาคตะวันออกเฉียงเหนือ"}},
{"type":"Feature","geometry":{"type":"Point","coordinates":[99.77355430858788,8.441870442505166]},"properties":{"_uid_":196,"name_place":"เขาคีรีวง","type2":"ภูเขา","type3":"แหล่งธรรมชาติท้องถิ่น","prov":"นครศรีธรรมราช","amp":"ลานสกา","tam":"กำโลน","reg":"ภาคใต้"}},
{"type":"Feature","geometry":{"type":"Point","coordinates":[99.87828653869224,20.38918261967198]},"properties":{"_uid_":197,"name_place":"ขุนน้ำนางนอน","type2":"","type3":"แหล่งธรรมชาติท้องถิ่น","prov":"เชียงราย","amp":"แม่สาย","tam":"โป่งผา","reg":"ภาคเหนือ"}},
{"type":"Feature","geometry":{"type":"Point","coordinates":[100.49996131947125,19.889659824583564]},"properties":{"_uid_":198,"name_place":"ขุนห้วยคอก","type2":"","type3":"แหล่งธรรมชาติท้องถิ่น","prov":"เชียงราย","amp":"เวียงแก่น","tam":"ปอ","reg":"ภาคเหนือ"}},
{"type":"Feature","geometry":{"type":"Point","coordinates":[100.62106496348098,7.1804155406545025]},"properties":{"_uid_":199,"name_place":"เขาเก้าเส้ง","type2":"ภูเขา","type3":"แหล่งธรรมชาติท้องถิ่น","prov":"สงขลา","amp":"เมืองสงขลา","tam":"เขารูปช้าง","reg":"ภาคใต้"}},
{"type":"Feature","geometry":{"type":"Point","coordinates":[99.7781033448427,13.516248646090531]},"properties":{"_uid_":200,"name_place":"เขาแก่นจันทน์","type2":"ภูเขา","type3":"แหล่งธรรมชาติท้องถิ่น","prov":"ราชบุรี","amp":"เมืองราชบุรี","tam":"ดอนตะโก","reg":"ภาคตะวันตก"}},
{"type":"Feature","geometry":{"type":"Point","coordinates":[99.97562739338002,12.515110711854602]},"properties":{"_uid_":201,"name_place":"เขาไกรลาศ","type2":"ภูเขา","type3":"แหล่งธรรมชาติท้องถิ่น","prov":"ประจวบคีรีขันธ์","amp":"หัวหิน","tam":"หนองแก","reg":"ภาคตะวันตก"}},
{"type":"Feature","geometry":{"type":"Point","coordinates":[99.07145551865928,16.168708570219323]},"properties":{"_uid_":202,"name_place":"เขาขาแข้ง","type2":"ภูเขา","type3":"แหล่งธรรมชาติท้องถิ่น","prov":"กำแพงเพชร","amp":"คลองลาน","tam":"คลองน้ำไหล","reg":"ภาคเหนือ"}},
{"type":"Feature","geometry":{"type":"Point","coordinates":[99.78707300794774,7.547683513318541]},"properties":{"_uid_":203,"name_place":"น้ำตกกะช่อง","type2":"น้ำตก","type3":"แหล่งธรรมชาติท้องถิ่น","prov":"ตรัง","amp":"นาโยง","tam":"ช่อง","reg":"ภาคใต้"}},
{"type":"Feature","geometry":{"type":"Point","coordinates":[98.66472861520157,17.168596937260507]},"properties":{"_uid_":204,"name_place":"ดอยขุนแม่ตื่น","type2":"ภูเขา","type3":"แหล่งธรรมชาติท้องถิ่น","prov":"ตาก","amp":"แม่ระมาด","tam":"แม่ตื่น","reg":"ภาคเหนือ"}},
{"type":"Feature","geometry":{"type":"Point","coordinates":[99.24766623918681,19.676460162333186]},"properties":{"_uid_":205,"name_place":"ดอยขุนห้อยฝาง","type2":"ภูเขา","type3":"แหล่งธรรมชาติท้องถิ่น","prov":"เชียงใหม่","amp":"ไชยปราการ","tam":"ศรีดงเย็น","reg":"ภาคเหนือ"}},
{"type":"Feature","geometry":{"type":"Point","coordinates":[98.1729318619294,17.79716368066301]},"properties":{"_uid_":206,"name_place":"ดอยเทอยีเจ้า","type2":"ภูเขา","type3":"แหล่งธรรมชาติท้องถิ่น","prov":"เชียงใหม่","amp":"อมก๋อย","tam":"นาเกียน","reg":"ภาคเหนือ"}},
{"type":"Feature","geometry":{"type":"Point","coordinates":[100.45588884397914,19.078556401975657]},"properties":{"_uid_":207,"name_place":"ดอยผาจิ","type2":"ภูเขา","type3":"แหล่งธรรมชาติท้องถิ่น","prov":"พะเยา","amp":"ปง","tam":"ขุนควร","reg":"ภาคเหนือ"}},
{"type":"Feature","geometry":{"type":"Point","coordinates":[100.53308282918418,20.01661279649593]},"properties":{"_uid_":208,"name_place":"ดอยผาตั้ง","type2":"ภูเขา","type3":"แหล่งธรรมชาติท้องถิ่น","prov":"เชียงราย","amp":"เวียงแก่น","tam":"ปอ","reg":"ภาคเหนือ"}},
{"type":"Feature","geometry":{"type":"Point","coordinates":[100.41163429852752,19.7907086707566]},"properties":{"_uid_":209,"name_place":"ดอยผาหม่น","type2":"ภูเขา","type3":"แหล่งธรรมชาติท้องถิ่น","prov":"เชียงราย","amp":"เทิง","tam":"ตับเต่า","reg":"ภาคเหนือ"}},
{"type":"Feature","geometry":{"type":"Point","coordinates":[99.146105754485,20.044082709553134]},"properties":{"_uid_":210,"name_place":"ดอยผ้าห่มปก","type2":"ภูเขา","type3":"แหล่งธรรมชาติท้องถิ่น","prov":"เชียงใหม่","amp":"แม่อาย","tam":"แม่สาว","reg":"ภาคเหนือ"}},
{"type":"Feature","geometry":{"type":"Point","coordinates":[101.22192041026658,19.326166210391737]},"properties":{"_uid_":211,"name_place":"ดอยผีปันน้ำ","type2":"ภูเขา","type3":"แหล่งธรรมชาติท้องถิ่น","prov":"น่าน","amp":"บ่อเกลือ","tam":"บ่อเกลือเหนือ","reg":"ภาคเหนือ"}},
{"type":"Feature","geometry":{"type":"Point","coordinates":[99.82357748420608,20.01425677277816]},"properties":{"_uid_":212,"name_place":"ดอยพระบาท","type2":"ภูเขา","type3":"แหล่งธรรมชาติท้องถิ่น","prov":"เชียงราย","amp":"เมืองเชียงราย","tam":"บ้านดู่","reg":"ภาคเหนือ"}},
{"type":"Feature","geometry":{"type":"Point","coordinates":[100.6575433225531,19.12684115904226]},"properties":{"_uid_":213,"name_place":"ดอยวาว","type2":"ภูเขา","type3":"แหล่งธรรมชาติท้องถิ่น","prov":"น่าน","amp":"ท่าวังผา","tam":"ป่าคา","reg":"ภาคเหนือ"}},
{"type":"Feature","geometry":{"type":"Point","coordinates":[98.85537164589,17.127105052577832]},"properties":{"_uid_":214,"name_place":"ดอยสอยมาลัย","type2":"ภูเขา","type3":"แหล่งธรรมชาติท้องถิ่น","prov":"ตาก","amp":"บ้านตาก","tam":"ท้องฟ้า","reg":"ภาคเหนือ"}},
{"type":"Feature","geometry":{"type":"Point","coordinates":[100.40211966989742,16.845964496771707]},"properties":{"_uid_":215,"name_place":"ดอยสุเทพสอง 2","type2":"ภูเขา","type3":"แหล่งธรรมชาติท้องถิ่น","prov":"พิษณุโลก","amp":"วังทอง","tam":"วังทอง","reg":"ภาคเหนือ"}},
{"type":"Feature","geometry":{"type":"Point","coordinates":[100.82933277860968,18.37227731560715]},"properties":{"_uid_":216,"name_place":"ดอยเสมอดาว","type2":"ภูเขา","type3":"แหล่งธรรมชาติท้องถิ่น","prov":"น่าน","amp":"นาน้อย","tam":"ศรีษะเกษ","reg":"ภาคเหนือ"}},
{"type":"Feature","geometry":{"type":"Point","coordinates":[98.89615778471682,19.434598438810013]},"properties":{"_uid_":217,"name_place":"ดอยหลวงเชียงดาว","type2":"ภูเขา","type3":"แหล่งธรรมชาติท้องถิ่น","prov":"เชียงใหม่","amp":"เชียงดาว","tam":"เชียงดาว","reg":"ภาคเหนือ"}},
{"type":"Feature","geometry":{"type":"Point","coordinates":[98.84771997358409,15.975812330569653]},"properties":{"_uid_":218,"name_place":"ดอยหัวหมด","type2":"ภูเขา","type3":"แหล่งธรรมชาติท้องถิ่น","prov":"ตาก","amp":"อุ้มผาง","tam":"อุ้มผาง","reg":"ภาคเหนือ"}},
{"type":"Feature","geometry":{"type":"Point","coordinates":[99.03948019533463,19.901360087467395]},"properties":{"_uid_":219,"name_place":"ดอยอ่างขาง","type2":"ภูเขา","type3":"แหล่งธรรมชาติท้องถิ่น","prov":"เชียงใหม่","amp":"ฝาง","tam":"แม่งอน","reg":"ภาคเหนือ"}},
{"type":"Feature","geometry":{"type":"Point","coordinates":[98.48754396297146,18.588940598772353]},"properties":{"_uid_":220,"name_place":"ดอยอินทนนท์","type2":"ภูเขา","type3":"แหล่งธรรมชาติท้องถิ่น","prov":"เชียงใหม่","amp":"จอมทอง","tam":"บ้านหลวง","reg":"ภาคเหนือ"}},
{"type":"Feature","geometry":{"type":"Point","coordinates":[98.10249011556655,17.525255775698376]},"properties":{"_uid_":221,"name_place":"ทะเลหมอกกิ่วลม","type2":"","type3":"แหล่งธรรมชาติท้องถิ่น","prov":"ตาก","amp":"ท่าสองยาง","tam":"แม่สอง","reg":"ภาคเหนือ"}},
{"type":"Feature","geometry":{"type":"Point","coordinates":[101.56050833468794,16.272010424033052]},"properties":{"_uid_":222,"name_place":"ทุ่งกะละมัง","type2":"","type3":"แหล่งธรรมชาติท้องถิ่น","prov":"ชัยภูมิ","amp":"หนองบัวแดง","tam":"นางแดด","reg":"ภาคตะวันออกเฉียงเหนือ"}},
{"type":"Feature","geometry":{"type":"Point","coordinates":[99.57097627174751,18.57827679962649]},"properties":{"_uid_":223,"name_place":"ทะเลสาบกิ่วลม","type2":"แหล่งน้ำ","type3":"แหล่งธรรมชาติท้องถิ่น","prov":"ลำปาง","amp":"แจ้ห่ม","tam":"บ้านสา","reg":"ภาคเหนือ"}},
{"type":"Feature","geometry":{"type":"Point","coordinates":[99.59075468087303,12.908495621099163]},"properties":{"_uid_":224,"name_place":"ทะเลสาบแก่งกระจาน","type2":"แหล่งน้ำ","type3":"แหล่งธรรมชาติท้องถิ่น","prov":"เพชรบุรี","amp":"แก่งกระจาน","tam":"แก่งกระจาน","reg":"ภาคตะวันตก"}},
{"type":"Feature","geometry":{"type":"Point","coordinates":[100.04636616931944,20.260508932609604]},"properties":{"_uid_":225,"name_place":"ทะเลสาบเชียงแสน","type2":"แหล่งน้ำ","type3":"แหล่งธรรมชาติท้องถิ่น","prov":"เชียงราย","amp":"เชียงแสน","tam":"โยนก","reg":"ภาคเหนือ"}},
{"type":"Feature","geometry":{"type":"Point","coordinates":[98.64242874615395,17.944370781300155]},"properties":{"_uid_":226,"name_place":"ทะเลสาบดอยเต่า","type2":"แหล่งน้ำ","type3":"แหล่งธรรมชาติท้องถิ่น","prov":"เชียงใหม่","amp":"ดอยเต่า","tam":"ท่าเดื่อ","reg":"ภาคเหนือ"}},
{"type":"Feature","geometry":{"type":"Point","coordinates":[100.74181057324452,14.61854941574612]},"properties":{"_uid_":227,"name_place":"ทะเลสาบบ้านหมอ","type2":"แหล่งน้ำ","type3":"แหล่งธรรมชาติท้องถิ่น","prov":"สระบุรี","amp":"บ้านหมอ","tam":"สร่างโศก","reg":"ภาคกลาง"}},
{"type":"Feature","geometry":{"type":"Point","coordinates":[103.62291140592721,15.536911434297961]},"properties":{"_uid_":228,"name_place":"ทุ่งกุลาร้องไห้","type2":"","type3":"แหล่งธรรมชาติท้องถิ่น","prov":"ร้อยเอ็ด","amp":"เกษตรวิสัย","tam":"ดงครั่งน้อย","reg":"ภาคตะวันออกเฉียงเหนือ"}},
{"type":"Feature","geometry":{"type":"Point","coordinates":[100.84154278343833,14.814554584811441]},"properties":{"_uid_":229,"name_place":"ทุ่งทานตะวัน","type2":"","type3":"แหล่งธรรมชาติท้องถิ่น","prov":"ลพบุรี","amp":"เมืองลพบุรี","tam":"โคกตูม","reg":"ภาคกลาง"}},
{"type":"Feature","geometry":{"type":"Point","coordinates":[98.0651598238165,18.170086178772127]},"properties":{"_uid_":230,"name_place":"ทุ่งบัวตองดอยแม่เหาะ","type2":"","type3":"แหล่งธรรมชาติท้องถิ่น","prov":"แม่ฮ่องสอน","amp":"แม่สะเรียง","tam":"แม่เหาะ","reg":"ภาคเหนือ"}},
{"type":"Feature","geometry":{"type":"Point","coordinates":[98.08633155769773,18.903667574851095]},"properties":{"_uid_":231,"name_place":"ทุ่งบัวตองดอยแม่อูคอ","type2":"","type3":"แหล่งธรรมชาติท้องถิ่น","prov":"แม่ฮ่องสอน","amp":"ขุนยวม","tam":"แม่อูคอ","reg":"ภาคเหนือ"}},
{"type":"Feature","geometry":{"type":"Point","coordinates":[101.36875955396529,14.421364520491064]},"properties":{"_uid_":232,"name_place":"ทุ่งหญ้ากวาง","type2":"","type3":"แหล่งธรรมชาติท้องถิ่น","prov":"นครนายก","amp":"เมืองนครนายก","tam":"หินตั้ง","reg":"ภาคตะวันออก"}},
{"type":"Feature","geometry":{"type":"Point","coordinates":[100.12216599587644,6.7275637459655275]},"properties":{"_uid_":233,"name_place":"ทุ่งหญ้าวังประ","type2":"","type3":"แหล่งธรรมชาติท้องถิ่น","prov":"สตูล","amp":"ควนโดน","tam":"วังประจัน","reg":"ภาคใต้"}},
{"type":"Feature","geometry":{"type":"Point","coordinates":[99.55260387614845,15.668925054062308]},"properties":{"_uid_":234,"name_place":"ทุ่งหินเหิน","type2":"","type3":"แหล่งธรรมชาติท้องถิ่น","prov":"นครสวรรค์","amp":"ชุมตาบง","tam":"ปางสวรรค์","reg":"ภาคเหนือ"}},
{"type":"Feature","geometry":{"type":"Point","coordinates":[98.8514523883054,8.777655104161717]},"properties":{"_uid_":235,"name_place":"ธารน้ำตกบางคุย","type2":"","type3":"แหล่งธรรมชาติท้องถิ่น","prov":"สุราษฎร์ธานี","amp":"พนม","tam":"คลองชะอุ่น","reg":"ภาคใต้"}},
{"type":"Feature","geometry":{"type":"Point","coordinates":[98.8503015709814,8.792025488992902]},"properties":{"_uid_":236,"name_place":"ธารน้ำร้อน","type2":"","type3":"แหล่งธรรมชาติท้องถิ่น","prov":"สุราษฎร์ธานี","amp":"พนม","tam":"คลองชะอุ่น","reg":"ภาคใต้"}},
{"type":"Feature","geometry":{"type":"Point","coordinates":[99.24398368349817,13.519907591095116]},"properties":{"_uid_":237,"name_place":"ธารน้ำร้อนบ่อคลึง","type2":"","type3":"แหล่งธรรมชาติท้องถิ่น","prov":"ราชบุรี","amp":"สวนผึ้ง","tam":"สวนผึ้ง","reg":"ภาคตะวันตก"}},
{"type":"Feature","geometry":{"type":"Point","coordinates":[98.86326211888347,8.823378866907184]},"properties":{"_uid_":238,"name_place":"ธารน้ำวน","type2":"","type3":"แหล่งธรรมชาติท้องถิ่น","prov":"สุราษฎร์ธานี","amp":"พนม","tam":"ต้นยวน","reg":"ภาคใต้"}},
{"type":"Feature","geometry":{"type":"Point","coordinates":[98.97744483048669,10.013563090958327]},"properties":{"_uid_":239,"name_place":"น้ำตกผาเมือง","type2":"น้ำตก","type3":"แหล่งธรรมชาติท้องถิ่น","prov":"ชุมพร","amp":"หลังสวน","tam":"นาขา","reg":"ภาคใต้"}},
{"type":"Feature","geometry":{"type":"Point","coordinates":[98.44644765356092,8.652074695051452]},"properties":{"_uid_":240,"name_place":"น้ำตกลำรู่","type2":"น้ำตก","type3":"แหล่งธรรมชาติท้องถิ่น","prov":"พังงา","amp":"กะปง","tam":"กะปง","reg":"ภาคใต้"}},
{"type":"Feature","geometry":{"type":"Point","coordinates":[98.27438190206153,8.30702829546881]},"properties":{"_uid_":241,"name_place":"บ่อน้ำพุร้อน","type2":"โป่งพุร้อน","type3":"แหล่งธรรมชาติท้องถิ่น","prov":"พังงา","amp":"ตะกั่วทุ่ง","tam":"โคกกลอย","reg":"ภาคใต้"}},
{"type":"Feature","geometry":{"type":"Point","coordinates":[100.69146094347431,6.525522095799457]},"properties":{"_uid_":242,"name_place":"บ่อน้ำพุร้อน","type2":"โป่งพุร้อน","type3":"แหล่งธรรมชาติท้องถิ่น","prov":"สงขลา","amp":"นาทวี","tam":"ประกอบ","reg":"ภาคใต้"}},
{"type":"Feature","geometry":{"type":"Point","coordinates":[99.49774600667321,19.319162028550725]},"properties":{"_uid_":243,"name_place":"น้ำพุร้อนทุ่งเทวี","type2":"โป่งพุร้อน","type3":"แหล่งธรรมชาติท้องถิ่น","prov":"เชียงราย","amp":"เวียงป่าเป้า","tam":"บ้านโป่ง","reg":"ภาคเหนือ"}},
{"type":"Feature","geometry":{"type":"Point","coordinates":[99.79892674011398,20.11710004385551]},"properties":{"_uid_":244,"name_place":"น้ำพุร้อนบ้านป่าตึง","type2":"โป่งพุร้อน","type3":"แหล่งธรรมชาติท้องถิ่น","prov":"เชียงราย","amp":"แม่จัน","tam":"ป่าตึง","reg":"ภาคเหนือ"}},
{"type":"Feature","geometry":{"type":"Point","coordinates":[99.08920055590798,19.714762389251582]},"properties":{"_uid_":245,"name_place":"น้ำพุร้อนบ้านใหม่หนองบั","type2":"โป่งพุร้อน","type3":"แหล่งธรรมชาติท้องถิ่น","prov":"เชียงใหม่","amp":"ไชยปราการ","tam":"หนองบัว","reg":"ภาคเหนือ"}},
{"type":"Feature","geometry":{"type":"Point","coordinates":[98.68324214018244,19.242700491628966]},"properties":{"_uid_":246,"name_place":"น้ำพุร้อนโป่งเดือด","type2":"โป่งพุร้อน","type3":"แหล่งธรรมชาติท้องถิ่น","prov":"เชียงใหม่","amp":"แม่แตง","tam":"ป่าแป๋","reg":"ภาคเหนือ"}},
{"type":"Feature","geometry":{"type":"Point","coordinates":[99.83311759748067,19.977514259051766]},"properties":{"_uid_":247,"name_place":"น้ำพุร้อนโป่งพระบาท","type2":"โป่งพุร้อน","type3":"แหล่งธรรมชาติท้องถิ่น","prov":"เชียงราย","amp":"เมืองเชียงราย","tam":"บ้านดู่","reg":"ภาคเหนือ"}},
{"type":"Feature","geometry":{"type":"Point","coordinates":[99.49436841481605,20.085209483632696]},"properties":{"_uid_":248,"name_place":"น้ำพุร้อนมะลิกา","type2":"โป่งพุร้อน","type3":"แหล่งธรรมชาติท้องถิ่น","prov":"เชียงใหม่","amp":"แม่อาย","tam":"ท่าตอน","reg":"ภาคเหนือ"}},
{"type":"Feature","geometry":{"type":"Point","coordinates":[99.20092940480238,9.336212637293315]},"properties":{"_uid_":249,"name_place":"บ่อน้ำร้อน","type2":"โป่งพุร้อน","type3":"แหล่งธรรมชาติท้องถิ่น","prov":"สุราษฎร์ธานี","amp":"ท่าฉาง","tam":"เขาถ่าน","reg":"ภาคใต้"}},
{"type":"Feature","geometry":{"type":"Point","coordinates":[99.70486070007443,17.679508838517126]},"properties":{"_uid_":250,"name_place":"บ่อน้ำร้อน","type2":"โป่งพุร้อน","type3":"แหล่งธรรมชาติท้องถิ่น","prov":"สุโขทัย","amp":"ศรีสัชนาลัย","tam":"แม่สิน","reg":"ภาคเหนือ"}},
{"type":"Feature","geometry":{"type":"Point","coordinates":[99.0289185345,9.028844418453808]},"properties":{"_uid_":251,"name_place":"บ่อน้ำร้อน","type2":"โป่งพุร้อน","type3":"แหล่งธรรมชาติท้องถิ่น","prov":"สุราษฎร์ธานี","amp":"คีรีรัฐนิคม","tam":"ถ้ำสิงขร","reg":"ภาคใต้"}},
{"type":"Feature","geometry":{"type":"Point","coordinates":[99.6591800966103,8.747167567061119]},"properties":{"_uid_":252,"name_place":"บ่อน้ำร้อน","type2":"โป่งพุร้อน","type3":"แหล่งธรรมชาติท้องถิ่น","prov":"นครศรีธรรมราช","amp":"นบพิตำ","tam":"กรุงชิง","reg":"ภาคใต้"}},
{"type":"Feature","geometry":{"type":"Point","coordinates":[100.13049593430425,7.449290957754457]},"properties":{"_uid_":253,"name_place":"บ่อน้ำร้อนเขาชัยสน","type2":"โป่งพุร้อน","type3":"แหล่งธรรมชาติท้องถิ่น","prov":"พัทลุง","amp":"เขาชัยสน","tam":"เขาชัยสน","reg":"ภาคใต้"}},
{"type":"Feature","geometry":{"type":"Point","coordinates":[99.46335328468699,7.407877799210114]},"properties":{"_uid_":254,"name_place":"บ่อน้ำร้อนควนแคง","type2":"โป่งพุร้อน","type3":"แหล่งธรรมชาติท้องถิ่น","prov":"ตรัง","amp":"กันตัง","tam":"บ่อน้ำร้อน","reg":"ภาคใต้"}},
{"type":"Feature","geometry":{"type":"Point","coordinates":[99.46885800890692,18.83559456557652]},"properties":{"_uid_":255,"name_place":"บ่อน้ำร้อนแจ้ซ้อน","type2":"โป่งพุร้อน","type3":"แหล่งธรรมชาติท้องถิ่น","prov":"ลำปาง","amp":"เมืองปาน","tam":"แจ้ซ้อน","reg":"ภาคเหนือ"}},
{"type":"Feature","geometry":{"type":"Point","coordinates":[99.34377531277764,18.233747194071217]},"properties":{"_uid_":256,"name_place":"บ่อน้ำร้อนบ้านโป่งร้อน","type2":"โป่งพุร้อน","type3":"แหล่งธรรมชาติท้องถิ่น","prov":"ลำปาง","amp":"เกาะคา","tam":"ไหล่หิน","reg":"ภาคเหนือ"}},
{"type":"Feature","geometry":{"type":"Point","coordinates":[101.07162873789751,5.849220867386877]},"properties":{"_uid_":257,"name_place":"บ่อน้ำร้อนเบตง","type2":"โป่งพุร้อน","type3":"แหล่งธรรมชาติท้องถิ่น","prov":"ยะลา","amp":"เบตง","tam":"ตาเนาะแมเราะ","reg":"ภาคใต้"}},
{"type":"Feature","geometry":{"type":"Point","coordinates":[98.94743350145401,19.596029714200046]},"properties":{"_uid_":258,"name_place":"บ่อน้ำร้อนโป่งอ่าง","type2":"โป่งพุร้อน","type3":"แหล่งธรรมชาติท้องถิ่น","prov":"เชียงใหม่","amp":"เชียงดาว","tam":"เมืองนะ","reg":"ภาคเหนือ"}},
{"type":"Feature","geometry":{"type":"Point","coordinates":[98.65138932995815,9.95707029313498]},"properties":{"_uid_":259,"name_place":"บ่อน้ำร้อนแม่","type2":"โป่งพุร้อน","type3":"แหล่งธรรมชาติท้องถิ่น","prov":"ระนอง","amp":"เมืองระนอง","tam":"หาดส้มแป้น","reg":"ภาคใต้"}},
{"type":"Feature","geometry":{"type":"Point","coordinates":[98.6356371584871,16.885482281571115]},"properties":{"_uid_":260,"name_place":"บ่อน้ำร้อนแม่กาษา","type2":"โป่งพุร้อน","type3":"แหล่งธรรมชาติท้องถิ่น","prov":"ตาก","amp":"แม่สอด","tam":"แม่กาษา","reg":"ภาคเหนือ"}},
{"type":"Feature","geometry":{"type":"Point","coordinates":[98.64965558179621,9.95774890455723]},"properties":{"_uid_":261,"name_place":"บ่อน้ำร้อนรักษะวาริน","type2":"โป่งพุร้อน","type3":"แหล่งธรรมชาติท้องถิ่น","prov":"ระนอง","amp":"เมืองระนอง","tam":"หาดส้มแป้น","reg":"ภาคใต้"}},
{"type":"Feature","geometry":{"type":"Point","coordinates":[99.26467800175182,8.975042120137344]},"properties":{"_uid_":262,"name_place":"บ่อน้ำร้อนรัตนโกสัย","type2":"โป่งพุร้อน","type3":"แหล่งธรรมชาติท้องถิ่น","prov":"สุราษฎร์ธานี","amp":"พุนพิน","tam":"ท่าสะท้อน","reg":"ภาคใต้"}},
{"type":"Feature","geometry":{"type":"Point","coordinates":[99.7276834059578,19.700414983025077]},"properties":{"_uid_":263,"name_place":"บ่อน้ำร้อนห้วยทรายขาว","type2":"โป่งพุร้อน","type3":"แหล่งธรรมชาติท้องถิ่น","prov":"เชียงราย","amp":"พาน","tam":"ทรายขาว","reg":"ภาคเหนือ"}},
{"type":"Feature","geometry":{"type":"Point","coordinates":[98.6709801536875,16.422987562842742]},"properties":{"_uid_":264,"name_place":"บ่อน้ำร้อนห้วยน้ำนัก","type2":"โป่งพุร้อน","type3":"แหล่งธรรมชาติท้องถิ่น","prov":"ตาก","amp":"พบพระ","tam":"พบพระ","reg":"ภาคเหนือ"}},
{"type":"Feature","geometry":{"type":"Point","coordinates":[99.69101480614229,19.957608752457435]},"properties":{"_uid_":265,"name_place":"บ่อน้ำร้อนห้วยหมากเลี่ย","type2":"โป่งพุร้อน","type3":"แหล่งธรรมชาติท้องถิ่น","prov":"เชียงราย","amp":"เมืองเชียงราย","tam":"ดอยฮาง","reg":"ภาคเหนือ"}},
{"type":"Feature","geometry":{"type":"Point","coordinates":[99.65987777753816,19.97933280861313]},"properties":{"_uid_":266,"name_place":"บ่อน้ำร้อนห้วยหมากเหลี่","type2":"โป่งพุร้อน","type3":"แหล่งธรรมชาติท้องถิ่น","prov":"เชียงราย","amp":"เมืองเชียงราย","tam":"แม่ยาว","reg":"ภาคเหนือ"}},
{"type":"Feature","geometry":{"type":"Point","coordinates":[98.69484127774679,10.054033552358467]},"properties":{"_uid_":267,"name_place":"บ่อน้ำร้อนหาดยาย","type2":"โป่งพุร้อน","type3":"แหล่งธรรมชาติท้องถิ่น","prov":"ระนอง","amp":"ละอุ่น","tam":"บางพระเหนือ","reg":"ภาคใต้"}},
{"type":"Feature","geometry":{"type":"Point","coordinates":[100.83955297804246,18.36832059983369]},"properties":{"_uid_":268,"name_place":"ผาชู้","type2":"ภูเขา","type3":"แหล่งธรรมชาติท้องถิ่น","prov":"น่าน","amp":"นาน้อย","tam":"ศรีษะเกษ","reg":"ภาคเหนือ"}},
{"type":"Feature","geometry":{"type":"Point","coordinates":[101.3697964086066,14.45187549298728]},"properties":{"_uid_":269,"name_place":"โป่งชมรมเพื่อน","type2":"โป่งพุร้อน","type3":"แหล่งธรรมชาติท้องถิ่น","prov":"นครราชสีมา","amp":"ปากช่อง","tam":"หมูสี","reg":"ภาคตะวันออกเฉียงเหนือ"}},
{"type":"Feature","geometry":{"type":"Point","coordinates":[98.6818529431394,19.235712612800047]},"properties":{"_uid_":270,"name_place":"โป่งเดือดบ้านป่าแป๋","type2":"โป่งพุร้อน","type3":"แหล่งธรรมชาติท้องถิ่น","prov":"เชียงใหม่","amp":"แม่แตง","tam":"ป่าแป๋","reg":"ภาคเหนือ"}},
{"type":"Feature","geometry":{"type":"Point","coordinates":[101.36954962074492,14.442921426255598]},"properties":{"_uid_":271,"name_place":"โป่งต้นไทร","type2":"โป่งพุร้อน","type3":"แหล่งธรรมชาติท้องถิ่น","prov":"นครราชสีมา","amp":"ปากช่อง","tam":"หมูสี","reg":"ภาคตะวันออกเฉียงเหนือ"}},
{"type":"Feature","geometry":{"type":"Point","coordinates":[101.37207623137738,14.419019649108819]},"properties":{"_uid_":272,"name_place":"โป่งทุ่งกวาง","type2":"โป่งพุร้อน","type3":"แหล่งธรรมชาติท้องถิ่น","prov":"นครนายก","amp":"เมืองนครนายก","tam":"หินตั้ง","reg":"ภาคตะวันออก"}},
{"type":"Feature","geometry":{"type":"Point","coordinates":[101.40218908814904,14.430653156801988]},"properties":{"_uid_":273,"name_place":"ผากล้วยไม้","type2":"ภูเขา","type3":"แหล่งธรรมชาติท้องถิ่น","prov":"นครราชสีมา","amp":"ปากช่อง","tam":"หมูสี","reg":"ภาคตะวันออกเฉียงเหนือ"}},
{"type":"Feature","geometry":{"type":"Point","coordinates":[105.61759138417419,15.629672683179137]},"properties":{"_uid_":274,"name_place":"ผากำปั่น","type2":"ภูเขา","type3":"แหล่งธรรมชาติท้องถิ่น","prov":"อุบลราชธานี","amp":"โขงเจียม","tam":"นาโพธิ์กลาง","reg":"ภาคตะวันออกเฉียงเหนือ"}},
{"type":"Feature","geometry":{"type":"Point","coordinates":[101.89030422890434,16.0018561861243]},"properties":{"_uid_":275,"name_place":"ผาเกิ้ง","type2":"ภูเขา","type3":"แหล่งธรรมชาติท้องถิ่น","prov":"ชัยภูมิ","amp":"เมืองชัยภูมิ","tam":"ห้วยต้อน","reg":"ภาคตะวันออกเฉียงเหนือ"}},
{"type":"Feature","geometry":{"type":"Point","coordinates":[99.24515208895929,17.927419125299945]},"properties":{"_uid_":276,"name_place":"ผาข้าง","type2":"ภูเขา","type3":"แหล่งธรรมชาติท้องถิ่น","prov":"ลำปาง","amp":"สบปราบ","tam":"นายาง","reg":"ภาคเหนือ"}},
{"type":"Feature","geometry":{"type":"Point","coordinates":[100.69990814479118,19.134436880387554]},"properties":{"_uid_":277,"name_place":"ผาจ้อง","type2":"ภูเขา","type3":"แหล่งธรรมชาติท้องถิ่น","prov":"น่าน","amp":"ท่าวังผา","tam":"ป่าคา","reg":"ภาคเหนือ"}},
{"type":"Feature","geometry":{"type":"Point","coordinates":[105.61832457787733,15.620208602394605]},"properties":{"_uid_":278,"name_place":"ผาชนะได","type2":"ภูเขา","type3":"แหล่งธรรมชาติท้องถิ่น","prov":"อุบลราชธานี","amp":"โขงเจียม","tam":"นาโพธิ์กลาง","reg":"ภาคตะวันออกเฉียงเหนือ"}},
{"type":"Feature","geometry":{"type":"Point","coordinates":[105.49254373906724,15.75926155045222]},"properties":{"_uid_":279,"name_place":"ผาชัน","type2":"ภูเขา","type3":"แหล่งธรรมชาติท้องถิ่น","prov":"อุบลราชธานี","amp":"โพธิ์ไทร","tam":"สำโรง","reg":"ภาคตะวันออกเฉียงเหนือ"}},
{"type":"Feature","geometry":{"type":"Point","coordinates":[102.78708884045638,16.33566353419858]},"properties":{"_uid_":280,"name_place":"หนองกุดละว้า","type2":"แหล่งน้ำ","type3":"แหล่งธรรมชาติท้องถิ่น","prov":"ขอนแก่น","amp":"เมืองขอนแก่น","tam":"ดอนช้าง","reg":"ภาคตะวันออกเฉียงเหนือ"}},
{"type":"Feature","geometry":{"type":"Point","coordinates":[103.53881395315348,17.580316238874616]},"properties":{"_uid_":281,"name_place":"หนองทุ่งมน","type2":"แหล่งน้ำ","type3":"แหล่งธรรมชาติท้องถิ่น","prov":"สกลนคร","amp":"เจริญศิลป์","tam":"เจริญศิลป์","reg":"ภาคตะวันออกเฉียงเหนือ"}},
{"type":"Feature","geometry":{"type":"Point","coordinates":[99.1278430451549,16.875016639037035]},"properties":{"_uid_":282,"name_place":"หนองน้ำมณีบรรพต","type2":"แหล่งน้ำ","type3":"แหล่งธรรมชาติท้องถิ่น","prov":"ตาก","amp":"เมืองตาก","tam":"ระแหง","reg":"ภาคเหนือ"}},
{"type":"Feature","geometry":{"type":"Point","coordinates":[102.44174831532978,17.20592664621829]},"properties":{"_uid_":283,"name_place":"หนองบัว","type2":"แหล่งน้ำ","type3":"แหล่งธรรมชาติท้องถิ่น","prov":"หนองบัวลำภู","amp":"เมืองหนองบัวลำภู","tam":"หนองบัว","reg":"ภาคตะวันออกเฉียงเหนือ"}},
{"type":"Feature","geometry":{"type":"Point","coordinates":[104.77635429991335,17.417708605124616]},"properties":{"_uid_":284,"name_place":"หนองบึก","type2":"แหล่งน้ำ","type3":"แหล่งธรรมชาติท้องถิ่น","prov":"นครพนม","amp":"เมืองนครพนม","tam":"หนองแสง","reg":"ภาคตะวันออกเฉียงเหนือ"}},
{"type":"Feature","geometry":{"type":"Point","coordinates":[101.36804786393506,14.450452049588316]},"properties":{"_uid_":285,"name_place":"หนองผักชี","type2":"แหล่งน้ำ","type3":"แหล่งธรรมชาติท้องถิ่น","prov":"นครราชสีมา","amp":"ปากช่อง","tam":"หมูสี","reg":"ภาคตะวันออกเฉียงเหนือ"}},
{"type":"Feature","geometry":{"type":"Point","coordinates":[99.9404138855102,19.847884158247798]},"properties":{"_uid_":286,"name_place":"หนองหลวง","type2":"แหล่งน้ำ","type3":"แหล่งธรรมชาติท้องถิ่น","prov":"เชียงราย","amp":"เวียงชัย","tam":"เวียงชัย","reg":"ภาคเหนือ"}},
{"type":"Feature","geometry":{"type":"Point","coordinates":[98.76473720612994,7.681670379008354]},"properties":{"_uid_":287,"name_place":"หมู่เกาะพีพี","type2":"เกาะ","type3":"แหล่งธรรมชาติท้องถิ่น","prov":"กระบี่","amp":"เมืองกระบี่","tam":"อ่าวนาง","reg":"ภาคใต้"}},
{"type":"Feature","geometry":{"type":"Point","coordinates":[105.6223936503666,15.632152792249988]},"properties":{"_uid_":288,"name_place":"ผาหินแตก","type2":"ภูเขา","type3":"แหล่งธรรมชาติท้องถิ่น","prov":"อุบลราชธานี","amp":"โขงเจียม","tam":"นาโพธิ์กลาง","reg":"ภาคตะวันออกเฉียงเหนือ"}},
{"type":"Feature","geometry":{"type":"Point","coordinates":[101.7661390005976,16.86010660132452]},"properties":{"_uid_":289,"name_place":"ผาเหยียบเมฆ","type2":"ภูเขา","type3":"แหล่งธรรมชาติท้องถิ่น","prov":"เลย","amp":"ภูกระดึง","tam":"ศรีฐาน","reg":"ภาคตะวันออกเฉียงเหนือ"}},
{"type":"Feature","geometry":{"type":"Point","coordinates":[99.18732143270168,14.342776276881791]},"properties":{"_uid_":290,"name_place":"ผาเอื้อง","type2":"ภูเขา","type3":"แหล่งธรรมชาติท้องถิ่น","prov":"กาญจนบุรี","amp":"ศรีสวัสดิ์","tam":"ท่ากระดาน","reg":"ภาคตะวันตก"}},
{"type":"Feature","geometry":{"type":"Point","coordinates":[99.09452814549459,7.48920609454777]},"properties":{"_uid_":291,"name_place":"หมู่เกาะลันตา","type2":"เกาะ","type3":"แหล่งธรรมชาติท้องถิ่น","prov":"กระบี่","amp":"เกาะลันตา","tam":"เกาะลันตาใหญ่","reg":"ภาคใต้"}},
{"type":"Feature","geometry":{"type":"Point","coordinates":[99.27714486206972,6.564689427752679]},"properties":{"_uid_":292,"name_place":"หมู่เกาะอาดัง-ราวี","type2":"เกาะ","type3":"แหล่งธรรมชาติท้องถิ่น","prov":"สตูล","amp":"เมืองสตูล","tam":"เกาะสาหร่าย","reg":"ภาคใต้"}},
{"type":"Feature","geometry":{"type":"Point","coordinates":[102.63493389830717,12.14975192609348]},"properties":{"_uid_":293,"name_place":"แหลมกลัด","type2":"ชายหาด","type3":"แหล่งธรรมชาติท้องถิ่น","prov":"ตราด","amp":"เมืองตราด","tam":"แหลมกลัด","reg":"ภาคตะวันออก"}},
{"type":"Feature","geometry":{"type":"Point","coordinates":[100.7989558272217,13.163135367040827]},"properties":{"_uid_":294,"name_place":"แหลมเขาขาด","type2":"ชายหาด","type3":"แหล่งธรรมชาติท้องถิ่น","prov":"ชลบุรี","amp":"เกาะสีชัง","tam":"ท่าเทววงษ์","reg":"ภาคตะวันออก"}},
{"type":"Feature","geometry":{"type":"Point","coordinates":[99.02677311072618,7.642834327079396]},"properties":{"_uid_":295,"name_place":"แหลมคอกวาง","type2":"ชายหาด","type3":"แหล่งธรรมชาติท้องถิ่น","prov":"กระบี่","amp":"เกาะลันตา","tam":"ศาลาด่าน","reg":"ภาคใต้"}},
{"type":"Feature","geometry":{"type":"Point","coordinates":[99.55444121791275,7.12596723638386]},"properties":{"_uid_":296,"name_place":"แหลมหัวหินใต้","type2":"ชายหาด","type3":"แหล่งธรรมชาติท้องถิ่น","prov":"ตรัง","amp":"ปะเหลียน","tam":"เกาะสุกร","reg":"ภาคใต้"}},
{"type":"Feature","geometry":{"type":"Point","coordinates":[100.07119749733992,9.668856109002963]},"properties":{"_uid_":297,"name_place":"แหลมหาดริ้น","type2":"ชายหาด","type3":"แหล่งธรรมชาติท้องถิ่น","prov":"สุราษฎร์ธานี","amp":"เกาะพะงัน","tam":"บ้านใต้","reg":"ภาคใต้"}},
{"type":"Feature","geometry":{"type":"Point","coordinates":[99.61503886119672,6.657808398599745]},"properties":{"_uid_":298,"name_place":"แหลมหินงาม","type2":"ชายหาด","type3":"แหล่งธรรมชาติท้องถิ่น","prov":"สตูล","amp":"เมืองสตูล","tam":"เกาะสาหร่าย","reg":"ภาคใต้"}},
{"type":"Feature","geometry":{"type":"Point","coordinates":[99.82495653562638,10.095384848322173]},"properties":{"_uid_":299,"name_place":"แหลมหินจปร.","type2":"ชายหาด","type3":"แหล่งธรรมชาติท้องถิ่น","prov":"สุราษฎร์ธานี","amp":"เกาะพะงัน","tam":"เกาะเต่า","reg":"ภาคใต้"}},
{"type":"Feature","geometry":{"type":"Point","coordinates":[99.9150139414888,9.569761836503007]},"properties":{"_uid_":300,"name_place":"แหลมใหญ่","type2":"ชายหาด","type3":"แหล่งธรรมชาติท้องถิ่น","prov":"สุราษฎร์ธานี","amp":"เกาะสมุย","tam":"อ่างทอง","reg":"ภาคใต้"}},
{"type":"Feature","geometry":{"type":"Point","coordinates":[100.08028483006593,7.6191488619974646]},"properties":{"_uid_":301,"name_place":"ถ้ำคูหาสวรรค์","type2":"ถ้ำ","type3":"แหล่งธรรมชาติท้องถิ่น","prov":"พัทลุง","amp":"เมืองพัทลุง","tam":"คูหาสวรรค์","reg":"ภาคใต้"}},
{"type":"Feature","geometry":{"type":"Point","coordinates":[101.03665519300108,15.7524989579886]},"properties":{"_uid_":302,"name_place":"ถ้ำชนะมาร","type2":"ถ้ำ","type3":"แหล่งธรรมชาติท้องถิ่น","prov":"เพชรบูรณ์","amp":"วิเชียรบุรี","tam":"สามแยก","reg":"ภาคเหนือ"}},
{"type":"Feature","geometry":{"type":"Point","coordinates":[102.28306165503378,12.142100036751323]},"properties":{"_uid_":303,"name_place":"อ่าวสับปะรด","type2":"ชายหาด","type3":"แหล่งธรรมชาติท้องถิ่น","prov":"ตราด","amp":"เกาะช้าง","tam":"เกาะช้าง","reg":"ภาคตะวันออก"}},
{"type":"Feature","geometry":{"type":"Point","coordinates":[99.2966511681601,7.512320572688305]},"properties":{"_uid_":304,"name_place":"อ่าวสิเกา","type2":"ชายหาด","type3":"แหล่งธรรมชาติท้องถิ่น","prov":"ตรัง","amp":"สิเกา","tam":"ไม้ฝาด","reg":"ภาคใต้"}},
{"type":"Feature","geometry":{"type":"Point","coordinates":[102.03635786086839,12.48959013704269]},"properties":{"_uid_":305,"name_place":"อ่าวหมู","type2":"ชายหาด","type3":"แหล่งธรรมชาติท้องถิ่น","prov":"จันทบุรี","amp":"แหลมสิงห์","tam":"บางกะไชย","reg":"ภาคตะวันออก"}},
{"type":"Feature","geometry":{"type":"Point","coordinates":[99.03588576573773,10.446275686995417]},"properties":{"_uid_":306,"name_place":"ถ้ำช้างเผือก","type2":"ถ้ำ","type3":"แหล่งธรรมชาติท้องถิ่น","prov":"ชุมพร","amp":"เมืองชุมพร","tam":"บ้านนา","reg":"ภาคใต้"}},
{"type":"Feature","geometry":{"type":"Point","coordinates":[99.53979228441013,18.008338955291848]},"properties":{"_uid_":307,"name_place":"ถ้ำช้างแม่ลาว","type2":"ถ้ำ","type3":"แหล่งธรรมชาติท้องถิ่น","prov":"ลำปาง","amp":"แม่ทะ","tam":"สันดอนแก้ว","reg":"ภาคเหนือ"}},
{"type":"Feature","geometry":{"type":"Point","coordinates":[98.7074341789514,17.540415412608684]},"properties":{"_uid_":308,"name_place":"ถ้ำช้างร้อง","type2":"ถ้ำ","type3":"แหล่งธรรมชาติท้องถิ่น","prov":"ลำพูน","amp":"ลี้","tam":"ก้อ","reg":"ภาคเหนือ"}},
{"type":"Feature","geometry":{"type":"Point","coordinates":[100.57907037511495,18.27340026645446]},"properties":{"_uid_":309,"name_place":"ถ้ำเชตวัน","type2":"ถ้ำ","type3":"แหล่งธรรมชาติท้องถิ่น","prov":"น่าน","amp":"นาน้อย","tam":"สันทะ","reg":"ภาคเหนือ"}},
{"type":"Feature","geometry":{"type":"Point","coordinates":[99.18008586481218,14.09709185289583]},"properties":{"_uid_":310,"name_place":"ถ้ำเชลย","type2":"ถ้ำ","type3":"แหล่งธรรมชาติท้องถิ่น","prov":"กาญจนบุรี","amp":"ไทรโยค","tam":"ลุ่มสุ่ม","reg":"ภาคตะวันตก"}},
{"type":"Feature","geometry":{"type":"Point","coordinates":[98.83124167576389,14.46720331855713]},"properties":{"_uid_":311,"name_place":"ถ้ำดาวดึงษ์","type2":"ถ้ำ","type3":"แหล่งธรรมชาติท้องถิ่น","prov":"กาญจนบุรี","amp":"ไทรโยค","tam":"ไทรโยค","reg":"ภาคตะวันตก"}},
{"type":"Feature","geometry":{"type":"Point","coordinates":[100.7081025863617,16.562452670798958]},"properties":{"_uid_":312,"name_place":"ถ้ำเดือน-ถ้ำดาว","type2":"ถ้ำ","type3":"แหล่งธรรมชาติท้องถิ่น","prov":"พิษณุโลก","amp":"เนินมะปราง","tam":"บ้านมุง","reg":"ภาคเหนือ"}},
{"type":"Feature","geometry":{"type":"Point","coordinates":[99.67745950176277,8.157687072504476]},"properties":{"_uid_":313,"name_place":"ถ้ำตลอด","type2":"ถ้ำ","type3":"แหล่งธรรมชาติท้องถิ่น","prov":"นครศรีธรรมราช","amp":"ทุ่งสง","tam":"ชะมาย","reg":"ภาคใต้"}},
{"type":"Feature","geometry":{"type":"Point","coordinates":[98.82055039235804,16.053334297445602]},"properties":{"_uid_":314,"name_place":"ถ้ำตะโค๊ะบิ","type2":"ถ้ำ","type3":"แหล่งธรรมชาติท้องถิ่น","prov":"ตาก","amp":"อุ้มผาง","tam":"แม่กลอง","reg":"ภาคเหนือ"}},
{"type":"Feature","geometry":{"type":"Point","coordinates":[98.52742460427466,8.453130385806379]},"properties":{"_uid_":315,"name_place":"ถ้ำตาปาน","type2":"ถ้ำ","type3":"แหล่งธรรมชาติท้องถิ่น","prov":"พังงา","amp":"เมืองพังงา","tam":"ท้ายช้าง","reg":"ภาคใต้"}},
{"type":"Feature","geometry":{"type":"Point","coordinates":[99.28533745061678,10.92540833297965]},"properties":{"_uid_":316,"name_place":"ถ้ำตีนเป็ด","type2":"ถ้ำ","type3":"แหล่งธรรมชาติท้องถิ่น","prov":"ชุมพร","amp":"ปะทิว","tam":"เขาไชยราช","reg":"ภาคใต้"}},
{"type":"Feature","geometry":{"type":"Point","coordinates":[99.80451289128445,19.925138083921397]},"properties":{"_uid_":317,"name_place":"ถ้ำตุ๊ปู","type2":"ถ้ำ","type3":"แหล่งธรรมชาติท้องถิ่น","prov":"เชียงราย","amp":"เมืองเชียงราย","tam":"ริมกก","reg":"ภาคเหนือ"}},
{"type":"Feature","geometry":{"type":"Point","coordinates":[100.16206480427329,6.725145072972994]},"properties":{"_uid_":318,"name_place":"ถ้ำโตนดิน","type2":"ถ้ำ","type3":"แหล่งธรรมชาติท้องถิ่น","prov":"สตูล","amp":"ควนโดน","tam":"วังประจัน","reg":"ภาคใต้"}},
{"type":"Feature","geometry":{"type":"Point","coordinates":[99.62850539487798,15.379310401002996]},"properties":{"_uid_":319,"name_place":"ถ้ำทอง","type2":"ถ้ำ","type3":"แหล่งธรรมชาติท้องถิ่น","prov":"อุทัยธานี","amp":"ลานสัก","tam":"ทุ่งนางาม","reg":"ภาคเหนือ"}},
{"type":"Feature","geometry":{"type":"Point","coordinates":[99.79164529320562,13.370655675060258]},"properties":{"_uid_":320,"name_place":"ถ้ำทะลุ","type2":"ถ้ำ","type3":"แหล่งธรรมชาติท้องถิ่น","prov":"ราชบุรี","amp":"ปากท่อ","tam":"ดอนทราย","reg":"ภาคตะวันตก"}},
{"type":"Feature","geometry":{"type":"Point","coordinates":[101.16329604396027,6.258804062848554]},"properties":{"_uid_":321,"name_place":"ถ้ำทะลุ","type2":"ถ้ำ","type3":"แหล่งธรรมชาติท้องถิ่น","prov":"ยะลา","amp":"บันนังสตา","tam":"ถ้ำทะลุ","reg":"ภาคใต้"}},
{"type":"Feature","geometry":{"type":"Point","coordinates":[98.92853378802396,10.120084207964412]},"properties":{"_uid_":322,"name_place":"ถ้ำทิพย์ปรีดาศาลช้างเล่","type2":"ถ้ำ","type3":"แหล่งธรรมชาติท้องถิ่น","prov":"ชุมพร","amp":"สวี","tam":"นาสัก","reg":"ภาคใต้"}},
{"type":"Feature","geometry":{"type":"Point","coordinates":[98.88060341785405,18.35794141086155]},"properties":{"_uid_":323,"name_place":"ถ้ำเทพนิมิตร","type2":"ถ้ำ","type3":"แหล่งธรรมชาติท้องถิ่น","prov":"ลำพูน","amp":"ป่าซาง","tam":"นครเจดีย์","reg":"ภาคเหนือ"}},
{"type":"Feature","geometry":{"type":"Point","coordinates":[100.87781150854147,14.795282379488523]},"properties":{"_uid_":324,"name_place":"ถ้ำเทวาพิทักษ์","type2":"ถ้ำ","type3":"แหล่งธรรมชาติท้องถิ่น","prov":"ลพบุรี","amp":"พัฒนานิคม","tam":"ช่องสาริกา","reg":"ภาคกลาง"}},
{"type":"Feature","geometry":{"type":"Point","coordinates":[99.99903655340296,12.175615968191865]},"properties":{"_uid_":325,"name_place":"ถ้ำไทร","type2":"ถ้ำ","type3":"แหล่งธรรมชาติท้องถิ่น","prov":"ประจวบคีรีขันธ์","amp":"กุยบุรี","tam":"เขาแดง","reg":"ภาคตะวันตก"}},
{"type":"Feature","geometry":{"type":"Point","coordinates":[98.9763835380056,10.22687190212371]},"properties":{"_uid_":326,"name_place":"ถ้ำธารน้ำลอดใหญ่","type2":"ถ้ำ","type3":"แหล่งธรรมชาติท้องถิ่น","prov":"ชุมพร","amp":"สวี","tam":"นาสัก","reg":"ภาคใต้"}},
{"type":"Feature","geometry":{"type":"Point","coordinates":[99.29341297394137,10.66974501571639]},"properties":{"_uid_":327,"name_place":"ถ้ำนางทอง","type2":"ถ้ำ","type3":"แหล่งธรรมชาติท้องถิ่น","prov":"ชุมพร","amp":"ปะทิว","tam":"บางสน","reg":"ภาคใต้"}},
{"type":"Feature","geometry":{"type":"Point","coordinates":[100.82955049393371,14.669858071373818]},"properties":{"_uid_":328,"name_place":"ถ้ำนารายณ์","type2":"ถ้ำ","type3":"แหล่งธรรมชาติท้องถิ่น","prov":"สระบุรี","amp":"พระพุทธบาท","tam":"เขาวง","reg":"ภาคกลาง"}},
{"type":"Feature","geometry":{"type":"Point","coordinates":[99.91104282093735,15.81748508496075]},"properties":{"_uid_":329,"name_place":"ถ้ำน้ำทิพย์เขาน้อย","type2":"ถ้ำ","type3":"แหล่งธรรมชาติท้องถิ่น","prov":"นครสวรรค์","amp":"เมืองนครสวรรค์","tam":"หนองกระโดน","reg":"ภาคเหนือ"}},
{"type":"Feature","geometry":{"type":"Point","coordinates":[101.13594875989497,16.246046662505638]},"properties":{"_uid_":330,"name_place":"ถ้ำน้ำบัง","type2":"ถ้ำ","type3":"แหล่งธรรมชาติท้องถิ่น","prov":"เพชรบูรณ์","amp":"เมืองเพชรบูรณ์","tam":"นายม","reg":"ภาคเหนือ"}},
{"type":"Feature","geometry":{"type":"Point","coordinates":[100.0623158887276,6.760552187605601]},"properties":{"_uid_":331,"name_place":"ถ้ำน้ำผุด","type2":"ถ้ำ","type3":"แหล่งธรรมชาติท้องถิ่น","prov":"สตูล","amp":"ควนโดน","tam":"ย่านซื่อ","reg":"ภาคใต้"}},
{"type":"Feature","geometry":{"type":"Point","coordinates":[98.56571534833802,8.457934695533595]},"properties":{"_uid_":332,"name_place":"ถ้ำน้ำผุด","type2":"ถ้ำ","type3":"แหล่งธรรมชาติท้องถิ่น","prov":"พังงา","amp":"เมืองพังงา","tam":"บางเตย","reg":"ภาคใต้"}},
{"type":"Feature","geometry":{"type":"Point","coordinates":[99.5884933147654,15.43071283387509]},"properties":{"_uid_":333,"name_place":"ถ้ำน้ำพุเขาร้องกวาง","type2":"ถ้ำ","type3":"แหล่งธรรมชาติท้องถิ่น","prov":"อุทัยธานี","amp":"ลานสัก","tam":"ป่าอ้อ","reg":"ภาคเหนือ"}},
{"type":"Feature","geometry":{"type":"Point","coordinates":[99.65603473935916,19.509531023091945]},"properties":{"_uid_":334,"name_place":"ถ้ำน้ำลอด","type2":"ถ้ำ","type3":"แหล่งธรรมชาติท้องถิ่น","prov":"เชียงราย","amp":"พาน","tam":"ป่าหุ่ง","reg":"ภาคเหนือ"}},
{"type":"Feature","geometry":{"type":"Point","coordinates":[98.9449545830059,10.233161955819389]},"properties":{"_uid_":335,"name_place":"ถ้ำน้ำลอด","type2":"ถ้ำ","type3":"แหล่งธรรมชาติท้องถิ่น","prov":"ชุมพร","amp":"สวี","tam":"นาสัก","reg":"ภาคใต้"}},
{"type":"Feature","geometry":{"type":"Point","coordinates":[99.01052129482078,10.370259905358955]},"properties":{"_uid_":336,"name_place":"ถ้ำน้ำลอดเทพนิมิตร","type2":"ถ้ำ","type3":"แหล่งธรรมชาติท้องถิ่น","prov":"ชุมพร","amp":"สวี","tam":"วิสัยใต้","reg":"ภาคใต้"}},
{"type":"Feature","geometry":{"type":"Point","coordinates":[98.9811064053655,14.534018517872578]},"properties":{"_uid_":337,"name_place":"ถ้ำเนรมิต","type2":"ถ้ำ","type3":"แหล่งธรรมชาติท้องถิ่น","prov":"กาญจนบุรี","amp":"ศรีสวัสดิ์","tam":"แม่กระบุง","reg":"ภาคตะวันตก"}},
{"type":"Feature","geometry":{"type":"Point","coordinates":[98.67242034210105,18.50055012374257]},"properties":{"_uid_":338,"name_place":"ถ้ำบริจินดา","type2":"ถ้ำ","type3":"แหล่งธรรมชาติท้องถิ่น","prov":"เชียงใหม่","amp":"จอมทอง","tam":"บ้านหลวง","reg":"ภาคเหนือ"}},
{"type":"Feature","geometry":{"type":"Point","coordinates":[98.22795586628374,19.603757170780003]},"properties":{"_uid_":339,"name_place":"ถ้ำเพชร","type2":"ถ้ำ","type3":"แหล่งธรรมชาติท้องถิ่น","prov":"แม่ฮ่องสอน","amp":"ปางมะผ้า","tam":"ปางมะผ้า","reg":"ภาคเหนือ"}},
{"type":"Feature","geometry":{"type":"Point","coordinates":[99.39953895344227,10.76307521618321]},"properties":{"_uid_":340,"name_place":"ถ้ำยายไอ๋","type2":"ถ้ำ","type3":"แหล่งธรรมชาติท้องถิ่น","prov":"ชุมพร","amp":"ปะทิว","tam":"ชุมโค","reg":"ภาคใต้"}},
{"type":"Feature","geometry":{"type":"Point","coordinates":[99.16492131637084,14.14843852418529]},"properties":{"_uid_":341,"name_place":"ถ้ำเบญจรัตน์นคร","type2":"ถ้ำ","type3":"แหล่งธรรมชาติท้องถิ่น","prov":"กาญจนบุรี","amp":"ไทรโยค","tam":"ลุ่มสุ่ม","reg":"ภาคตะวันตก"}},
{"type":"Feature","geometry":{"type":"Point","coordinates":[99.71235257364049,19.350726865854764]},"properties":{"_uid_":342,"name_place":"ถ้ำประกายเพชร","type2":"ถ้ำ","type3":"แหล่งธรรมชาติท้องถิ่น","prov":"พะเยา","amp":"แม่ใจ","tam":"ศรีถ้อย","reg":"ภาคเหนือ"}},
{"type":"Feature","geometry":{"type":"Point","coordinates":[100.80699120304399,13.15765186600284]},"properties":{"_uid_":343,"name_place":"ถ้ำระฆัง","type2":"ถ้ำ","type3":"แหล่งธรรมชาติท้องถิ่น","prov":"ชลบุรี","amp":"เกาะสีชัง","tam":"ท่าเทววงษ์","reg":"ภาคตะวันออก"}},
{"type":"Feature","geometry":{"type":"Point","coordinates":[99.11313525253885,10.623312704797218]},"properties":{"_uid_":344,"name_place":"ถ้ำรับร่อ","type2":"ถ้ำ","type3":"แหล่งธรรมชาติท้องถิ่น","prov":"ชุมพร","amp":"ท่าแซะ","tam":"ท่าข้าม","reg":"ภาคใต้"}},
{"type":"Feature","geometry":{"type":"Point","coordinates":[99.8360093496698,7.709889039488023]},"properties":{"_uid_":345,"name_place":"ถ้ำรื่นเทพนิมิต","type2":"ถ้ำ","type3":"แหล่งธรรมชาติท้องถิ่น","prov":"พัทลุง","amp":"ศรีบรรพต","tam":"เขาปู่","reg":"ภาคใต้"}},
{"type":"Feature","geometry":{"type":"Point","coordinates":[98.51993819629483,8.433434055760905]},"properties":{"_uid_":346,"name_place":"ถ้ำฤาษีสวรรค์และถ้ำลูกเ","type2":"ถ้ำ","type3":"แหล่งธรรมชาติท้องถิ่น","prov":"พังงา","amp":"เมืองพังงา","tam":"ถ้ำน้ำผุด","reg":"ภาคใต้"}},
{"type":"Feature","geometry":{"type":"Point","coordinates":[98.28292015360728,19.5802113728674]},"properties":{"_uid_":347,"name_place":"ถ้ำลอด","type2":"ถ้ำ","type3":"แหล่งธรรมชาติท้องถิ่น","prov":"แม่ฮ่องสอน","amp":"ปางมะผ้า","tam":"ถ้ำลอด","reg":"ภาคเหนือ"}},
{"type":"Feature","geometry":{"type":"Point","coordinates":[98.69347063757492,8.377885574709916]},"properties":{"_uid_":348,"name_place":"ถ้ำลอด-ถ้ำผีหัวโต","type2":"ถ้ำ","type3":"แหล่งธรรมชาติท้องถิ่น","prov":"กระบี่","amp":"อ่าวลึก","tam":"อ่าวลึกใต้","reg":"ภาคใต้"}},
{"type":"Feature","geometry":{"type":"Point","coordinates":[104.61334994481878,16.722506645004263]},"properties":{"_uid_":349,"name_place":"ถ้ำประตู","type2":"ถ้ำ","type3":"แหล่งธรรมชาติท้องถิ่น","prov":"มุกดาหาร","amp":"เมืองมุกดาหาร","tam":"คำป่าหลาย","reg":"ภาคตะวันออกเฉียงเหนือ"}},
{"type":"Feature","geometry":{"type":"Point","coordinates":[99.40243515626348,13.955027599328135]},"properties":{"_uid_":350,"name_place":"ถ้ำประทุน","type2":"ถ้ำ","type3":"แหล่งธรรมชาติท้องถิ่น","prov":"กาญจนบุรี","amp":"เมืองกาญจนบุรี","tam":"วังเย็น","reg":"ภาคตะวันตก"}},
{"type":"Feature","geometry":{"type":"Point","coordinates":[98.7446899251838,8.362808894811597]},"properties":{"_uid_":351,"name_place":"ถ้ำสระยวนทอง 2","type2":"ถ้ำ","type3":"แหล่งธรรมชาติท้องถิ่น","prov":"กระบี่","amp":"อ่าวลึก","tam":"อ่าวลึกเหนือ","reg":"ภาคใต้"}},
{"type":"Feature","geometry":{"type":"Point","coordinates":[101.15186235981042,14.634277361260702]},"properties":{"_uid_":352,"name_place":"ถ้ำสะพานหิน","type2":"ถ้ำ","type3":"แหล่งธรรมชาติท้องถิ่น","prov":"สระบุรี","amp":"มวกเหล็ก","tam":"มิตรภาพ","reg":"ภาคกลาง"}},
{"type":"Feature","geometry":{"type":"Point","coordinates":[98.84898024910395,8.791805910762605]},"properties":{"_uid_":353,"name_place":"ถ้ำประวัติศาสตร์","type2":"ถ้ำ","type3":"แหล่งธรรมชาติท้องถิ่น","prov":"สุราษฎร์ธานี","amp":"พนม","tam":"คลองชะอุ่น","reg":"ภาคใต้"}},
{"type":"Feature","geometry":{"type":"Point","coordinates":[99.90752111793559,20.090284199449318]},"properties":{"_uid_":354,"name_place":"ถ้ำสายธาร","type2":"ถ้ำ","type3":"แหล่งธรรมชาติท้องถิ่น","prov":"เชียงราย","amp":"เมืองเชียงราย","tam":"ท่าสุด","reg":"ภาคเหนือ"}},
{"type":"Feature","geometry":{"type":"Point","coordinates":[98.86184017831769,8.557044128706245]},"properties":{"_uid_":355,"name_place":"ถ้ำปราสาทนาฬาคิริง","type2":"ถ้ำ","type3":"แหล่งธรรมชาติท้องถิ่น","prov":"กระบี่","amp":"ปลายพระยา","tam":"ปลายพระยา","reg":"ภาคใต้"}},
{"type":"Feature","geometry":{"type":"Point","coordinates":[101.98337953599668,16.82979330893944]},"properties":{"_uid_":356,"name_place":"ถ้ำป่าหลุบ","type2":"ถ้ำ","type3":"แหล่งธรรมชาติท้องถิ่น","prov":"ขอนแก่น","amp":"ชุมแพ","tam":"นาหนองทุ่ม","reg":"ภาคตะวันออกเฉียงเหนือ"}},
{"type":"Feature","geometry":{"type":"Point","coordinates":[99.44344499114432,15.010471350262426]},"properties":{"_uid_":357,"name_place":"ถ้ำป่าหวาย","type2":"ถ้ำ","type3":"แหล่งธรรมชาติท้องถิ่น","prov":"อุทัยธานี","amp":"บ้านไร่","tam":"บ้านไร่","reg":"ภาคเหนือ"}},
{"type":"Feature","geometry":{"type":"Point","coordinates":[99.87091432857477,20.384758059569346]},"properties":{"_uid_":358,"name_place":"ถ้ำปุ่มถ้ำปลา","type2":"ถ้ำ","type3":"แหล่งธรรมชาติท้องถิ่น","prov":"เชียงราย","amp":"แม่สาย","tam":"โป่งผา","reg":"ภาคเหนือ"}},
{"type":"Feature","geometry":{"type":"Point","coordinates":[99.86308666801993,20.32897384585175]},"properties":{"_uid_":359,"name_place":"ถ้ำเปลวปล่องฟ้า","type2":"ถ้ำ","type3":"แหล่งธรรมชาติท้องถิ่น","prov":"เชียงราย","amp":"แม่สาย","tam":"โป่งงาม","reg":"ภาคเหนือ"}},
{"type":"Feature","geometry":{"type":"Point","coordinates":[99.65987151845218,19.517508164715288]},"properties":{"_uid_":360,"name_place":"ถ้ำผาโขง","type2":"ถ้ำ","type3":"แหล่งธรรมชาติท้องถิ่น","prov":"เชียงราย","amp":"พาน","tam":"ป่าหุ่ง","reg":"ภาคเหนือ"}},
{"type":"Feature","geometry":{"type":"Point","coordinates":[101.9782034865239,17.265627828566387]},"properties":{"_uid_":361,"name_place":"ถ้ำผาซำบอน","type2":"ถ้ำ","type3":"แหล่งธรรมชาติท้องถิ่น","prov":"เลย","amp":"เอราวัณ","tam":"ผาอินทร์แปลง","reg":"ภาคตะวันออกเฉียงเหนือ"}},
{"type":"Feature","geometry":{"type":"Point","coordinates":[97.9851923850601,19.420724126854164]},"properties":{"_uid_":362,"name_place":"ถ้ำผาแดง","type2":"ถ้ำ","type3":"แหล่งธรรมชาติท้องถิ่น","prov":"แม่ฮ่องสอน","amp":"เมืองแม่ฮ่องสอน","tam":"ห้วยผา","reg":"ภาคเหนือ"}},
{"type":"Feature","geometry":{"type":"Point","coordinates":[99.05984505420113,19.57774410083903]},"properties":{"_uid_":363,"name_place":"ถ้ำผาแดง-ถ้ำล่อง","type2":"ถ้ำ","type3":"แหล่งธรรมชาติท้องถิ่น","prov":"เชียงใหม่","amp":"เชียงดาว","tam":"ปิงโค้ง","reg":"ภาคเหนือ"}},
{"type":"Feature","geometry":{"type":"Point","coordinates":[99.8965494760849,20.083496721721477]},"properties":{"_uid_":364,"name_place":"ถ้ำผาตอง","type2":"ถ้ำ","type3":"แหล่งธรรมชาติท้องถิ่น","prov":"เชียงราย","amp":"เมืองเชียงราย","tam":"ท่าสุด","reg":"ภาคเหนือ"}},
{"type":"Feature","geometry":{"type":"Point","coordinates":[98.8605053889466,19.413014872405235]},"properties":{"_uid_":365,"name_place":"ถ้ำผาปล่อง","type2":"ถ้ำ","type3":"แหล่งธรรมชาติท้องถิ่น","prov":"เชียงใหม่","amp":"เชียงดาว","tam":"เชียงดาว","reg":"ภาคเหนือ"}},
{"type":"Feature","geometry":{"type":"Point","coordinates":[99.16540831573921,17.44640061906177]},"properties":{"_uid_":366,"name_place":"ถ้ำผ่าผางาม","type2":"ถ้ำ","type3":"แหล่งธรรมชาติท้องถิ่น","prov":"ลำปาง","amp":"แม่พริก","tam":"พระบาทวังตวง","reg":"ภาคเหนือ"}},
{"type":"Feature","geometry":{"type":"Point","coordinates":[100.71739322240984,18.40091185618123]},"properties":{"_uid_":367,"name_place":"ถ้ำผามองและถ้ำผาเวียง","type2":"ถ้ำ","type3":"แหล่งธรรมชาติท้องถิ่น","prov":"น่าน","amp":"นาน้อย","tam":"ศรีษะเกษ","reg":"ภาคเหนือ"}},
{"type":"Feature","geometry":{"type":"Point","coordinates":[104.09506376187075,16.94531177262144]},